Time (ms),Stage,PosX (m),PosY (m),PosZ (m),VeloX (m/s),VeloY (m/s),VeloZ (m/s),AccelX (m/s^2),AccelY (m/s^2),AccelZ (m/s^2),Bar Altitude,Bar Pressure,Bar Temperature,GPS Longitude,GPS Latitude,GPS Altitude,GPS PosX,GPS PosY,GPS PosZ,GPS Heading Angle,GPS Satellites,IMU AccelX,IMU AccelY,IMU AccelZ,IMU AngVeloX,IMU AngVeloY,IMU AngVeloZ,IMU MagX,IMU MagY,IMU MagZ,IMU OrientationW,IMU OrientationX,IMU OrientationY,IMU OrientationZ,IMU Roll,IMU Pitch,IMU Yaw,PWM,Target Lat,Target Long,Goal Angle,BNO Calibration Sys,BNO Calibration Accel,BNO Calibration Gryo,BNO Calibration Mag
3108.10,Pre Launch,69.64,-3.83,4.87,0.03,0.03,0.03,0.00,0.99,15.93,6.11,98378.04,29.73,-771902976.00,427047296.00,233.21,69.63,-3.82,-42.90,103.36,15,-0.55,0.99,15.93,-0.44,-2.38,-0.88,-129.38,-50.75,65.25,0.55,0.48,0.45,0.52,81.78,-0.21,86.10,0.00,0.00,0.00,-45.00,0,1,3,0
3108.11,Powered Ascent,69.64,-3.83,4.91,0.06,0.06,0.06,0.00,5.88,39.15,6.11,98378.04,29.73,-771902976.00,427047296.00,233.21,69.63,-3.82,-42.90,103.36,15,2.96,5.88,39.15,4.25,-1.38,-0.50,-129.38,-50.75,65.25,0.55,0.48,0.45,0.52,81.82,-0.21,86.09,0.00,0.00,0.00,-45.00,0,1,3,0
3108.52,Powered Ascent,70.75,-3.50,8.27,5.34,5.34,5.34,0.00,3.53,41.87,16.84,98253.02,29.83,-771902976.00,427047328.00,232.91,69.36,-3.73,-43.20,309.36,14,12.75,3.53,41.87,-0.50,-11.88,-4.75,-82.00,-24.50,21.69,0.57,0.49,0.43,0.50,81.50,0.67,82.76,0.00,0.00,0.00,-45.00,0,1,3,0
3108.60,Powered Ascent,71.03,-3.41,10.41,6.13,6.13,6.13,0.00,4.90,42.10,19.63,98220.53,29.83,-771902976.00,427047328.00,232.91,69.36,-3.73,-43.20,309.36,14,14.13,4.90,42.10,-6.31,-12.25,-7.56,-78.69,-21.75,13.69,0.58,0.49,0.43,0.49,81.14,1.03,81.89,0.00,0.00,0.00,-45.00,0,1,3,0
3108.60,Powered Ascent,70.93,-3.42,11.48,5.98,5.98,5.98,0.00,3.90,42.25,19.63,98220.53,29.83,-771902976.00,427047328.00,232.91,69.36,-3.73,-43.20,309.36,14,14.89,3.90,42.25,-8.31,-12.25,-9.12,-78.69,-21.75,13.69,0.58,0.49,0.43,0.49,81.06,1.10,81.76,0.00,0.00,0.00,-45.00,0,1,3,0
3108.61,Powered Ascent,70.84,-3.43,12.43,5.88,5.88,5.88,0.00,1.87,42.52,19.63,98220.53,29.83,-771902976.00,427047328.00,232.91,69.36,-3.73,-43.20,309.36,14,15.98,1.87,42.52,-8.31,-12.69,-9.06,-78.69,-21.75,13.69,0.58,0.49,0.43,0.49,80.97,1.17,81.62,0.00,0.00,0.00,-45.00,0,1,3,0
3108.62,Powered Ascent,70.77,-3.44,13.26,5.80,5.80,5.80,0.00,1.89,42.54,19.63,98220.53,29.83,-771902976.00,427047328.00,232.91,69.36,-3.73,-43.20,309.36,14,15.93,1.89,42.54,-7.56,-13.06,-7.69,-75.00,-19.19,7.00,0.58,0.49,0.43,0.49,80.89,1.22,81.48,0.00,0.00,0.00,-45.00,0,1,3,0
3108.63,Powered Ascent,70.70,-3.45,13.97,5.72,5.72,5.72,0.00,3.60,42.35,19.63,98220.53,29.83,-771902976.00,427047328.00,232.91,69.36,-3.73,-43.20,309.36,14,15.01,3.60,42.35,-7.56,-13.06,-7.69,-75.00,-19.19,7.00,0.58,0.49,0.43,0.49,80.82,1.27,81.35,0.00,0.00,0.00,-45.00,0,1,3,0
3108.64,Powered Ascent,70.64,-3.46,14.63,5.67,5.67,5.67,0.00,3.69,42.28,19.63,98220.53,29.83,-771902976.00,427047328.00,232.91,69.36,-3.73,-43.20,309.36,14,14.49,3.69,42.28,-7.56,-13.00,-7.88,-75.00,-19.19,7.00,0.58,0.49,0.43,0.49,80.73,1.33,81.21,0.00,0.00,0.00,-45.00,0,1,3,0
3108.65,Powered Ascent,70.61,-3.46,15.54,5.66,5.66,5.66,0.00,5.51,42.13,22.96,98181.74,29.82,-771902976.00,427047328.00,232.91,69.36,-3.73,-43.20,309.36,14,13.91,5.51,42.13,-10.31,-12.62,-9.75,-75.00,-19.19,7.00,0.58,0.49,0.43,0.49,80.63,1.40,81.08,0.00,0.00,0.00,-45.00,0,1,3,0
3108.66,Powered Ascent,70.58,-3.46,16.37,5.66,5.66,5.66,0.00,4.04,42.35,22.96,98181.74,29.82,-771902976.00,427047328.00,232.91,69.36,-3.73,-43.20,309.36,14,14.72,4.04,42.35,-9.81,-13.06,-9.38,-75.00,-19.19,7.00,0.59,0.49,0.43,0.49,80.53,1.47,80.93,0.00,0.00,0.00,-45.00,0,1,3,0
3108.67,Powered Ascent,70.55,-3.46,17.12,5.67,5.67,5.67,0.00,3.60,42.47,22.96,98181.74,29.82,-771902976.00,427047328.00,232.91,69.36,-3.73,-43.20,309.36,14,15.13,3.60,42.47,-9.81,-13.06,-9.38,-75.00,-19.19,7.00,0.59,0.49,0.43,0.49,80.43,1.53,80.80,0.00,0.00,0.00,-45.00,0,1,3,0
3108.68,Powered Ascent,70.52,-3.46,17.77,5.67,5.67,5.67,0.00,2.74,42.57,22.96,98181.74,29.82,-771902976.00,427047328.00,232.91,69.36,-3.73,-43.20,309.36,14,15.30,2.74,42.57,-10.12,-13.25,-9.00,-70.25,-18.25,4.06,0.59,0.49,0.43,0.49,80.43,1.53,80.80,0.00,0.00,0.00,-45.00,0,1,3,0
3108.69,Powered Ascent,70.49,-3.47,18.35,5.65,5.65,5.65,0.00,4.93,42.29,22.96,98181.74,29.82,-771902976.00,427047328.00,232.91,69.36,-3.73,-43.20,309.36,14,14.15,4.93,42.29,-9.62,-13.88,-8.38,-70.25,-18.25,4.06,0.59,0.48,0.42,0.49,80.21,1.66,80.50,0.00,0.00,0.00,-45.00,0,1,3,0
3108.70,Powered Ascent,70.49,-3.46,19.02,5.70,5.70,5.70,0.00,3.41,42.43,22.96,98181.74,29.82,-771902976.00,427047328.00,232.91,69.36,-3.73,-43.20,309.36,14,14.30,3.41,42.43,-11.62,-13.56,-10.06,-70.25,-18.25,4.06,0.59,0.48,0.42,0.49,80.10,1.74,80.35,0.00,0.00,0.00,-45.00,0,1,3,0
3108.71,Powered Ascent,70.48,-3.46,19.61,5.74,5.74,5.74,0.00,4.02,42.41,22.96,98181.74,29.82,-771902976.00,427047328.00,232.91,69.36,-3.73,-43.20,309.36,14,14.21,4.02,42.41,-13.19,-13.88,-10.12,-70.25,-18.25,4.06,0.59,0.48,0.42,0.49,79.96,1.82,80.20,0.00,0.00,0.00,-45.00,0,1,3,0
3108.72,Powered Ascent,70.47,-3.46,20.37,5.78,5.78,5.78,0.00,2.76,42.65,26.83,98136.67,29.82,-771902976.00,427047328.00,232.91,69.36,-3.73,-43.20,309.36,14,14.90,2.76,42.65,-13.19,-13.88,-10.12,-70.25,-18.25,4.06,0.59,0.48,0.42,0.49,79.84,1.88,80.05,0.00,0.00,0.00,-45.00,0,1,3,0
3108.73,Powered Ascent,70.46,-3.46,21.05,5.80,5.80,5.80,0.00,3.06,42.66,26.83,98136.67,29.82,-771902976.00,427047328.00,232.91,69.36,-3.73,-43.20,309.36,14,14.86,3.06,42.66,-12.31,-14.75,-9.19,-68.38,-17.00,-0.38,0.59,0.48,0.42,0.49,79.84,1.88,80.05,0.00,0.00,0.00,-45.00,0,1,3,0
3108.74,Powered Ascent,70.45,-3.46,21.66,5.81,5.81,5.81,0.00,3.92,42.55,26.83,98136.67,29.82,-771902976.00,427047328.00,232.91,69.36,-3.73,-43.20,309.36,14,14.32,3.92,42.55,-13.12,-14.69,-9.50,-68.38,-17.00,-0.38,0.60,0.48,0.42,0.48,79.57,2.01,79.73,0.00,0.00,0.00,-45.00,0,1,3,0
3108.75,Powered Ascent,70.46,-3.45,22.37,5.87,5.87,5.87,0.00,4.60,42.41,26.83,98136.67,29.82,-771902976.00,427047328.00,232.91,69.36,-3.73,-43.20,309.36,14,13.55,4.60,42.41,-13.38,-15.06,-10.06,-68.38,-17.00,-0.38,0.60,0.48,0.42,0.48,79.42,2.09,79.56,0.00,0.00,0.00,-45.00,0,1,3,0
3108.76,Powered Ascent,70.46,-3.45,23.02,5.92,5.92,5.92,0.00,4.14,42.51,26.83,98136.67,29.82,-771902976.00,427047328.00,232.91,69.36,-3.73,-43.20,309.36,14,13.69,4.14,42.51,-15.25,-15.62,-10.44,-68.38,-17.00,-0.38,0.60,0.48,0.42,0.48,79.26,2.16,79.40,0.00,0.00,0.00,-45.00,0,1,3,0
3108.77,Powered Ascent,70.47,-3.44,23.63,5.98,5.98,5.98,0.00,3.77,42.70,26.83,98136.67,29.82,-771902976.00,427047328.00,232.91,69.36,-3.73,-43.20,309.36,14,14.33,3.77,42.70,-15.25,-15.62,-10.44,-68.38,-17.00,-0.38,0.60,0.48,0.42,0.48,79.12,2.23,79.22,0.00,0.00,0.00,-45.00,0,1,3,0
3108.78,Powered Ascent,70.46,-3.44,24.30,6.00,6.00,6.00,0.00,4.01,42.68,30.69,98136.67,29.81,-771902976.00,427047328.00,232.91,69.36,-3.73,-43.20,309.36,14,14.08,4.01,42.68,-14.69,-16.50,-10.00,-65.38,-16.56,-3.38,0.60,0.48,0.42,0.48,79.12,2.23,79.22,0.00,0.00,0.00,-45.00,0,1,3,0
3108.79,Powered Ascent,70.46,-3.44,24.98,6.03,6.03,6.03,0.00,4.47,42.66,30.69,98091.77,29.81,-771902976.00,427047328.00,232.91,69.36,-3.73,-43.20,309.36,14,13.92,4.47,42.66,-14.88,-16.88,-10.25,-65.38,-16.56,-3.38,0.61,0.48,0.42,0.48,78.80,2.37,78.86,0.00,0.00,0.00,-45.00,0,1,3,0
3108.80,Powered Ascent,70.47,-3.43,25.70,6.09,6.09,6.09,0.00,5.05,42.54,30.69,98091.77,29.81,-771902976.00,427047328.00,232.91,69.36,-3.73,-43.20,309.36,14,13.30,5.05,42.54,-15.75,-16.88,-10.94,-65.38,-16.56,-3.38,0.61,0.48,0.41,0.48,78.64,2.45,78.67,0.00,0.00,0.00,-45.00,0,1,3,0
3108.81,Powered Ascent,70.48,-3.43,26.39,6.15,6.15,6.15,0.00,3.53,42.83,30.69,98091.77,29.81,-771902976.00,427047328.00,232.91,69.36,-3.73,-43.20,309.36,14,13.93,3.53,42.83,-16.69,-18.00,-11.12,-65.38,-16.56,-3.38,0.61,0.48,0.41,0.48,78.47,2.52,78.47,0.00,0.00,0.00,-45.00,0,1,3,0
3108.82,Powered Ascent,70.49,-3.42,27.06,6.22,6.22,6.22,0.00,4.14,42.84,30.69,98091.77,29.81,-771902976.00,427047328.00,232.91,69.36,-3.73,-43.20,309.36,14,13.95,4.14,42.84,-16.69,-18.00,-11.12,-65.38,-16.56,-3.38,0.61,0.48,0.41,0.48,78.30,2.59,78.28,0.00,0.00,0.00,-45.00,0,1,3,0
3108.83,Powered Ascent,70.50,-3.42,27.61,6.25,6.25,6.25,0.00,3.75,42.91,30.69,98091.77,29.81,-771902976.00,427047328.00,232.91,69.36,-3.73,-43.20,309.36,14,13.88,3.75,42.91,-16.56,-18.69,-11.25,-62.38,-15.75,-4.69,0.61,0.48,0.41,0.48,78.30,2.59,78.28,0.00,0.00,0.00,-45.00,0,1,3,0
3108.84,Powered Ascent,70.49,-3.42,28.09,6.27,6.27,6.27,0.00,5.12,42.77,30.69,98091.77,29.81,-771902976.00,427047328.00,232.91,69.36,-3.73,-43.20,309.36,14,13.54,5.12,42.77,-16.69,-19.38,-10.94,-62.38,-15.75,-4.69,0.61,0.48,0.41,0.48,77.95,2.73,77.86,0.00,0.00,0.00,-45.00,0,1,3,0
3108.85,Powered Ascent,70.52,-3.41,28.95,6.35,6.35,6.35,0.00,4.17,42.88,35.42,98036.74,29.81,-771902976.00,427047328.00,232.91,69.36,-3.73,-43.20,309.36,14,13.41,4.17,42.88,-17.69,-20.12,-12.25,-62.38,-15.75,-4.69,0.62,0.48,0.41,0.48,77.77,2.80,77.65,0.00,0.00,0.00,-45.00,0,1,3,0
3108.86,Powered Ascent,70.53,-3.40,29.73,6.41,6.41,6.41,0.00,4.07,42.89,35.42,98036.74,29.81,-771902976.00,427047328.00,232.91,69.36,-3.73,-43.20,309.36,14,13.10,4.07,42.89,-18.06,-20.69,-12.31,-62.38,-15.75,-4.69,0.62,0.48,0.41,0.48,77.58,2.88,77.42,0.00,0.00,0.00,-45.00,0,1,3,0
3108.87,Powered Ascent,70.54,-3.39,30.44,6.46,6.46,6.46,0.00,4.10,42.99,35.42,98036.74,29.81,-771902976.00,427047328.00,232.91,69.36,-3.73,-43.20,309.36,14,13.36,4.10,42.99,-18.06,-20.69,-12.31,-62.38,-15.75,-4.69,0.62,0.48,0.41,0.47,77.40,2.94,77.20,0.00,0.00,0.00,-45.00,0,1,3,0
3108.88,Powered Ascent,70.55,-3.39,31.07,6.49,6.49,6.49,0.00,5.08,42.91,35.42,98036.74,29.81,-771902976.00,427047328.00,232.91,69.36,-3.73,-43.20,309.36,14,13.18,5.08,42.91,-17.75,-21.56,-11.88,-59.25,-16.00,-10.25,0.62,0.48,0.41,0.47,77.40,2.94,77.20,0.00,0.00,0.00,-45.00,0,1,3,0
3108.89,Powered Ascent,70.55,-3.39,31.63,6.51,6.51,6.51,0.00,4.78,42.98,35.42,98036.74,29.81,-771902976.00,427047328.00,232.91,69.36,-3.73,-43.20,309.36,14,13.09,4.78,42.98,-18.00,-21.88,-12.31,-59.25,-16.00,-10.25,0.62,0.47,0.40,0.47,77.02,3.09,76.72,0.00,0.00,0.00,-45.00,0,1,3,0
3108.90,Powered Ascent,70.58,-3.38,32.36,6.58,6.58,6.58,0.00,4.63,42.97,35.42,98036.74,29.81,-771902976.00,427047328.00,232.91,69.36,-3.73,-43.20,309.36,14,12.70,4.63,42.97,-18.50,-22.44,-12.75,-59.25,-16.00,-10.25,0.63,0.47,0.40,0.47,76.82,3.16,76.47,0.00,0.00,0.00,-45.00,0,1,3,0
3108.91,Powered Ascent,70.60,-3.37,33.22,6.64,6.64,6.64,0.00,3.85,43.10,40.30,97980.30,29.81,-771902976.00,427047328.00,232.91,69.36,-3.73,-43.20,309.36,14,12.68,3.85,43.10,-18.94,-23.88,-13.38,-59.25,-16.00,-10.25,0.63,0.47,0.40,0.47,76.62,3.23,76.22,0.00,0.00,0.00,-45.00,0,1,3,0
3108.93,Powered Ascent,70.62,-3.36,34.06,6.69,6.69,6.69,0.00,4.08,43.13,40.30,97979.91,29.81,-771902976.00,427047328.00,232.91,69.36,-3.73,-43.20,309.36,14,12.63,4.08,43.13,-18.94,-23.88,-13.38,-59.25,-16.00,-10.25,0.63,0.47,0.40,0.47,76.42,3.30,75.96,0.00,0.00,0.00,-45.00,0,1,3,0
3108.93,Powered Ascent,70.62,-3.36,34.72,6.71,6.71,6.71,0.00,5.03,43.09,40.30,97979.91,29.81,-771902976.00,427047328.00,232.91,69.36,-3.73,-43.20,309.36,14,12.68,5.03,43.09,-19.06,-24.50,-12.81,-55.75,-18.06,-12.19,0.63,0.47,0.40,0.47,76.42,3.30,75.96,0.00,0.00,0.00,-45.00,0,1,3,0
3108.94,Powered Ascent,70.62,-3.36,35.40,6.75,6.75,6.75,0.00,4.71,43.21,40.30,97979.91,29.81,-771902976.00,427047328.00,232.91,69.36,-3.73,-43.20,309.36,14,12.80,4.71,43.21,-19.06,-25.00,-13.25,-55.75,-18.06,-12.19,0.63,0.47,0.40,0.47,76.02,3.44,75.42,0.00,0.00,0.00,-45.00,0,1,3,0
3108.95,Powered Ascent,70.65,-3.35,36.15,6.80,6.80,6.80,0.00,4.94,43.16,40.30,97979.91,29.81,-771902976.00,427047328.00,232.91,69.36,-3.73,-43.20,309.36,14,12.43,4.94,43.16,-19.31,-25.56,-13.62,-55.75,-18.06,-12.19,0.64,0.47,0.39,0.47,75.81,3.50,75.14,0.00,0.00,0.00,-45.00,0,1,3,0
3108.96,Powered Ascent,70.67,-3.34,36.89,6.86,6.86,6.86,0.00,4.23,43.35,40.30,97979.91,29.81,-771902976.00,427047328.00,232.91,69.36,-3.73,-43.20,309.36,14,12.60,4.23,43.35,-19.25,-26.94,-13.75,-55.75,-18.06,-12.19,0.64,0.47,0.39,0.46,75.61,3.57,74.86,0.00,0.00,0.00,-45.00,0,1,3,0
3108.98,Powered Ascent,70.69,-3.33,37.60,6.91,6.91,6.91,0.00,4.40,43.28,40.30,97979.91,29.81,-771902976.00,427047328.00,232.91,69.36,-3.73,-43.20,309.36,14,12.15,4.40,43.28,-19.25,-26.94,-13.75,-55.75,-18.06,-12.19,0.64,0.47,0.39,0.46,75.40,3.63,74.55,0.00,0.00,0.00,-45.00,0,1,3,0
3108.98,Powered Ascent,70.69,-3.33,38.35,6.93,6.93,6.93,0.00,5.10,43.28,45.99,97913.88,29.81,-771902976.00,427047328.00,232.91,69.36,-3.73,-43.20,309.36,14,12.27,5.10,43.28,-18.81,-28.31,-13.44,-53.69,-18.88,-15.50,0.64,0.47,0.39,0.46,75.40,3.63,74.55,0.00,0.00,0.00,-45.00,0,1,3,0
3108.99,Powered Ascent,70.70,-3.32,39.13,6.96,6.96,6.96,0.00,5.57,43.28,45.99,97913.88,29.81,-771902976.00,427047328.00,232.91,69.36,-3.73,-43.20,309.36,14,12.33,5.57,43.28,-19.00,-29.25,-13.12,-53.69,-18.88,-15.50,0.65,0.47,0.39,0.46,74.99,3.74,73.93,0.00,0.00,0.00,-45.00,0,1,3,0
3109.00,Powered Ascent,70.73,-3.31,40.05,7.03,7.03,7.03,0.00,4.71,43.46,45.99,97913.88,29.81,-771902976.00,427047328.00,232.91,69.36,-3.73,-43.20,309.36,14,12.34,4.71,43.46,-18.94,-29.50,-14.19,-53.69,-18.88,-15.50,0.65,0.47,0.38,0.46,74.80,3.80,73.62,0.00,0.00,0.00,-45.00,0,1,3,0
3109.01,Powered Ascent,70.76,-3.30,40.89,7.08,7.08,7.08,0.00,4.75,43.40,45.99,97913.88,29.81,-771902976.00,427047328.00,232.91,69.36,-3.73,-43.20,309.36,14,11.87,4.75,43.40,-19.00,-30.31,-14.12,-53.69,-18.88,-15.50,0.65,0.47,0.38,0.46,74.59,3.85,73.30,0.00,0.00,0.00,-45.00,0,1,3,0
3109.02,Powered Ascent,70.78,-3.29,41.64,7.11,7.11,7.11,0.00,4.24,43.46,45.99,97913.88,29.81,-771902976.00,427047328.00,232.91,69.36,-3.73,-43.20,309.36,14,11.59,4.24,43.46,-19.00,-30.31,-14.12,-53.69,-18.88,-15.50,0.65,0.47,0.38,0.46,74.39,3.90,72.97,0.00,0.00,0.00,-45.00,0,1,3,0
3109.03,Powered Ascent,70.79,-3.29,42.31,7.13,7.13,7.13,0.00,5.06,43.38,45.99,97913.88,29.81,-771902976.00,427047328.00,232.91,69.36,-3.73,-43.20,309.36,14,11.52,5.06,43.38,-18.31,-31.12,-13.50,-49.19,-21.88,-17.00,0.65,0.47,0.38,0.46,74.39,3.90,72.97,0.00,0.00,0.00,-45.00,0,1,3,0
3109.04,Powered Ascent,70.79,-3.29,42.90,7.15,7.15,7.15,0.00,5.63,43.40,45.99,97913.88,29.81,-771902976.00,427047328.00,232.91,69.36,-3.73,-43.20,309.36,14,11.73,5.63,43.40,-18.00,-31.81,-13.62,-49.19,-21.88,-17.00,0.66,0.47,0.38,0.45,74.00,3.98,72.30,0.00,0.00,0.00,-45.00,0,1,3,0
3109.05,Powered Ascent,70.82,-3.27,43.98,7.21,7.21,7.21,0.00,5.36,43.46,53.34,97828.49,29.71,-771902976.00,427047328.00,232.91,69.36,-3.73,-43.20,309.36,14,11.58,5.36,43.46,-17.25,-33.12,-13.81,-49.19,-21.88,-17.00,0.66,0.47,0.38,0.45,73.81,4.02,71.95,0.00,0.00,0.00,-45.00,0,1,3,0
3109.06,Powered Ascent,70.85,-3.26,44.97,7.25,7.25,7.25,0.00,4.60,43.54,53.34,97828.49,29.71,-771902976.00,427047328.00,232.91,69.36,-3.73,-43.20,309.36,14,11.24,4.60,43.54,-17.19,-33.75,-14.12,-49.19,-21.88,-17.00,0.66,0.47,0.37,0.45,73.62,4.06,71.60,0.00,0.00,0.00,-45.00,0,1,3,0
3109.08,Powered Ascent,70.87,-3.25,45.94,7.30,7.30,7.30,0.00,4.96,43.67,53.34,97828.49,29.71,-771902976.00,427047328.00,232.91,69.36,-3.73,-43.20,309.36,14,11.76,4.96,43.67,-17.19,-33.75,-14.12,-44.06,-22.06,-20.69,0.66,0.47,0.37,0.45,73.44,4.10,71.24,0.00,0.00,0.00,-45.00,0,1,3,0
3109.08,Powered Ascent,70.87,-3.25,46.69,7.31,7.31,7.31,0.00,5.04,43.62,53.34,97828.49,29.71,-771902976.00,427047328.00,232.91,69.36,-3.73,-43.20,309.36,14,11.42,5.04,43.62,-16.00,-34.62,-13.69,-44.06,-22.06,-20.69,0.66,0.47,0.37,0.45,73.44,4.10,71.24,0.00,0.00,0.00,-45.00,0,1,3,0
3109.09,Powered Ascent,70.88,-3.25,47.48,7.33,7.33,7.33,0.00,4.57,43.65,53.34,97828.49,29.71,-771902976.00,427047328.00,232.91,69.36,-3.73,-43.20,309.36,14,11.06,4.57,43.65,-15.56,-35.38,-13.69,-44.06,-22.06,-20.69,0.67,0.47,0.37,0.45,73.08,4.15,70.49,0.00,0.00,0.00,-45.00,0,1,3,0
3109.10,Powered Ascent,70.91,-3.24,48.36,7.37,7.37,7.37,0.00,4.95,43.60,53.34,97828.49,29.71,-771902976.00,427047328.00,232.91,69.36,-3.73,-43.20,309.36,14,10.95,4.95,43.60,-14.50,-37.75,-13.56,-44.06,-22.06,-20.69,0.67,0.47,0.37,0.44,72.92,4.17,70.10,0.00,0.00,0.00,-45.00,0,1,3,0
3109.11,Powered Ascent,70.93,-3.22,49.45,7.41,7.41,7.41,0.00,4.33,43.77,59.55,97756.39,29.71,-771902976.00,427047328.00,232.91,69.36,-3.73,-43.20,309.36,14,11.02,4.33,43.77,-13.69,-40.31,-13.38,-44.06,-22.06,-20.69,0.67,0.47,0.36,0.44,72.75,4.17,69.69,0.00,0.00,0.00,-45.00,0,1,3,0
3109.13,Powered Ascent,70.96,-3.21,50.50,7.45,7.45,7.45,0.00,5.27,43.60,59.55,97756.39,29.71,-771902976.00,427047328.00,232.91,69.36,-3.73,-43.20,309.36,14,10.86,5.27,43.60,-13.69,-40.31,-13.38,-44.06,-22.06,-20.69,0.67,0.47,0.36,0.44,72.59,4.18,69.27,0.00,0.00,0.00,-45.00,0,1,3,0
3109.13,Powered Ascent,70.96,-3.21,51.33,7.46,7.46,7.46,0.00,5.12,43.76,59.55,97756.39,29.71,-771902976.00,427047328.00,232.91,69.36,-3.73,-43.20,309.36,14,11.22,5.12,43.76,-13.31,-41.69,-13.81,-40.75,-26.00,-22.56,0.67,0.47,0.36,0.44,72.59,4.18,69.27,0.00,0.00,0.00,-45.00,0,1,3,0
3109.14,Powered Ascent,70.97,-3.21,52.20,7.47,7.47,7.47,0.00,4.90,43.76,59.55,97756.39,29.71,-771902976.00,427047328.00,232.91,69.36,-3.73,-43.20,309.36,14,10.93,4.90,43.76,-12.50,-42.81,-14.38,-40.75,-26.00,-22.56,0.68,0.47,0.36,0.44,72.29,4.20,68.38,0.00,0.00,0.00,-45.00,0,1,3,0
3109.16,Powered Ascent,71.01,-3.19,53.24,7.53,7.53,7.53,0.00,4.88,43.80,59.55,97756.39,29.71,-771902976.00,427047328.00,232.91,69.36,-3.73,-43.20,309.36,14,10.96,4.88,43.80,-10.56,-44.00,-14.00,-40.75,-26.00,-22.56,0.68,0.47,0.35,0.43,72.16,4.19,67.94,0.00,0.00,0.00,-45.00,0,1,3,0
3109.17,Powered Ascent,71.03,-3.18,54.18,7.56,7.56,7.56,0.00,4.68,43.79,59.55,97756.39,29.71,-771902976.00,427047328.00,232.91,69.36,-3.73,-43.20,309.36,14,10.67,4.68,43.79,-10.19,-44.69,-14.00,-40.75,-26.00,-22.56,0.68,0.47,0.35,0.43,72.02,4.19,67.48,0.00,0.00,0.00,-45.00,0,1,3,0
3109.18,Powered Ascent,71.05,-3.17,55.25,7.59,7.59,7.59,0.00,4.73,43.74,65.68,97685.28,29.80,-771902976.00,427047328.00,232.91,69.36,-3.73,-43.20,309.36,14,10.43,4.73,43.74,-10.19,-44.69,-14.00,-36.25,-28.19,-23.50,0.69,0.47,0.35,0.43,71.90,4.18,67.02,0.00,0.00,0.00,-45.00,0,1,3,0
3109.19,Powered Ascent,71.06,-3.17,56.22,7.60,7.60,7.60,0.00,4.36,43.86,65.68,97685.28,29.80,-771902976.00,427047328.00,232.91,69.36,-3.73,-43.20,309.36,14,10.51,4.36,43.86,-9.50,-45.44,-13.69,-36.25,-28.19,-23.50,0.69,0.47,0.35,0.43,71.90,4.18,67.02,0.00,0.00,0.00,-45.00,0,1,3,0
3109.19,Powered Ascent,71.06,-3.16,57.09,7.61,7.61,7.61,0.00,4.08,43.93,65.68,97685.28,29.80,-771902976.00,427047328.00,232.91,69.36,-3.73,-43.20,309.36,14,10.50,4.08,43.93,-8.62,-46.81,-13.44,-36.25,-28.19,-23.50,0.69,0.47,0.34,0.42,71.68,4.13,66.06,0.00,0.00,0.00,-45.00,0,1,3,0
3109.21,Powered Ascent,71.10,-3.15,58.20,7.65,7.65,7.65,0.00,4.32,43.76,65.68,97685.28,29.80,-771902976.00,427047328.00,232.91,69.36,-3.73,-43.20,309.36,14,9.99,4.32,43.76,-7.50,-48.75,-13.19,-36.25,-28.19,-23.50,0.69,0.48,0.34,0.42,71.57,4.11,65.55,0.00,0.00,0.00,-45.00,0,1,3,0
3109.22,Powered Ascent,71.12,-3.14,59.22,7.68,7.68,7.68,0.00,4.10,43.94,65.68,97685.28,29.80,-771902976.00,427047328.00,232.91,69.36,-3.73,-43.20,309.36,14,10.43,4.10,43.94,-6.19,-51.69,-13.12,-36.25,-28.19,-23.50,0.70,0.48,0.34,0.42,71.47,4.07,65.04,0.00,0.00,0.00,-45.00,0,1,3,0
3109.23,Powered Ascent,71.15,-3.13,60.22,7.72,7.72,7.72,0.00,4.31,43.86,65.68,97685.28,29.80,-771902976.00,427047328.00,232.91,69.36,-3.73,-43.20,309.36,14,10.23,4.31,43.86,-6.19,-51.69,-13.12,-36.25,-28.19,-23.50,0.70,0.48,0.34,0.42,71.38,4.02,64.51,0.00,0.00,0.00,-45.00,0,1,3,0
3109.24,Powered Ascent,71.15,-3.13,60.97,7.72,7.72,7.72,0.00,4.44,43.86,65.68,97685.28,29.80,-771902976.00,427047328.00,232.91,69.36,-3.73,-43.20,309.36,14,10.30,4.44,43.86,-5.50,-53.12,-12.81,-32.38,-29.69,-24.06,0.70,0.48,0.34,0.42,71.38,4.02,64.51,0.00,0.00,0.00,-45.00,0,1,3,0
3109.24,Powered Ascent,71.16,-3.12,61.98,7.73,7.73,7.73,0.00,4.06,43.92,72.13,97610.55,29.80,-771902976.00,427047328.00,232.91,69.36,-3.73,-43.20,309.36,14,10.22,4.06,43.92,-4.31,-54.44,-13.12,-32.38,-29.69,-24.06,0.70,0.48,0.33,0.41,71.22,3.92,63.41,0.00,0.00,0.00,-45.00,0,1,3,0
3109.25,Powered Ascent,71.19,-3.11,63.11,7.76,7.76,7.76,0.00,4.01,43.93,72.13,97610.55,29.80,-771902976.00,427047328.00,232.91,69.36,-3.73,-43.20,309.36,14,10.21,4.01,43.93,-2.88,-56.94,-13.19,-32.38,-29.69,-24.06,0.70,0.48,0.33,0.41,71.16,3.87,62.85,0.00,0.00,0.00,-45.00,0,1,3,0
3109.27,Powered Ascent,71.21,-3.10,64.21,7.80,7.80,7.80,0.00,4.51,43.78,72.13,97610.55,29.80,-771902976.00,427047328.00,232.91,69.36,-3.73,-43.20,309.36,14,10.07,4.51,43.78,-2.44,-57.75,-13.19,-32.38,-29.69,-24.06,0.71,0.48,0.32,0.40,71.10,3.80,62.28,0.00,0.00,0.00,-45.00,0,1,3,0
3109.28,Powered Ascent,71.24,-3.09,65.29,7.83,7.83,7.83,0.00,4.31,43.89,72.13,97610.55,29.80,-771902976.00,427047328.00,232.91,69.36,-3.73,-43.20,309.36,14,10.33,4.31,43.89,-2.44,-57.75,-13.19,-32.38,-29.69,-24.06,0.71,0.48,0.32,0.40,71.04,3.74,61.69,0.00,0.00,0.00,-45.00,0,1,3,0
3109.29,Powered Ascent,71.25,-3.08,66.18,7.84,7.84,7.84,0.00,3.55,43.98,72.13,97610.55,29.80,-771902976.00,427047328.00,232.91,69.36,-3.73,-43.20,309.36,14,10.06,3.55,43.98,-2.00,-59.00,-13.38,-29.25,-30.19,-26.38,0.71,0.48,0.32,0.40,71.04,3.74,61.69,0.00,0.00,0.00,-45.00,0,1,3,0
3109.29,Powered Ascent,71.25,-3.08,66.97,7.85,7.85,7.85,0.00,3.60,44.03,72.13,97610.55,29.80,-771902976.00,427047328.00,232.91,69.36,-3.73,-43.20,309.36,14,10.32,3.60,44.03,-1.06,-59.81,-13.38,-29.25,-30.19,-26.38,0.71,0.49,0.31,0.39,70.95,3.61,60.50,0.00,0.00,0.00,-45.00,0,1,3,0
3109.31,Powered Ascent,71.29,-3.06,68.28,7.88,7.88,7.88,0.00,3.56,43.88,79.51,97610.55,29.80,-771902976.00,427047328.00,232.91,69.36,-3.73,-43.20,309.36,14,9.77,3.56,43.88,0.62,-62.62,-13.81,-29.25,-30.19,-26.38,0.71,0.49,0.31,0.39,70.92,3.53,59.88,0.00,0.00,0.00,-45.00,0,1,3,0
3109.32,Powered Ascent,71.31,-3.05,69.49,7.91,7.91,7.91,0.00,3.69,43.84,79.51,97525.05,29.80,-771902976.00,427047328.00,232.91,69.36,-3.73,-43.20,309.36,14,9.81,3.69,43.84,0.94,-63.62,-14.12,-29.25,-30.19,-26.38,0.72,0.49,0.31,0.39,70.89,3.47,59.25,0.00,0.00,0.00,-45.00,0,1,3,0
3109.33,Powered Ascent,71.33,-3.04,70.58,7.93,7.93,7.93,0.00,3.11,43.88,79.51,97525.05,29.80,-771902976.00,427047328.00,232.91,69.36,-3.73,-43.20,309.36,14,9.53,3.11,43.88,0.94,-63.62,-14.12,-29.25,-30.19,-26.38,0.72,0.49,0.30,0.38,70.86,3.39,58.61,0.00,0.00,0.00,-45.00,0,1,3,0
3109.34,Powered Ascent,71.34,-3.04,71.57,7.94,7.94,7.94,0.00,2.85,43.99,79.51,97525.05,29.80,-771902976.00,427047328.00,232.91,69.36,-3.73,-43.20,309.36,14,9.75,2.85,43.99,0.81,-64.75,-14.06,-24.06,-31.75,-26.56,0.72,0.49,0.30,0.38,70.86,3.39,58.61,0.00,0.00,0.00,-45.00,0,1,3,0
3109.34,Powered Ascent,71.34,-3.04,72.45,7.94,7.94,7.94,0.00,3.31,43.88,79.51,97525.05,29.80,-771902976.00,427047328.00,232.91,69.36,-3.73,-43.20,309.36,14,9.80,3.31,43.88,1.62,-66.12,-14.19,-24.06,-31.75,-26.56,0.72,0.50,0.30,0.38,70.82,3.23,57.30,0.00,0.00,0.00,-45.00,0,1,3,0
3109.36,Powered Ascent,71.37,-3.02,73.62,7.98,7.98,7.98,0.00,2.39,44.09,79.51,97525.05,29.80,-771902976.00,427047328.00,232.91,69.36,-3.73,-43.20,309.36,14,9.86,2.39,44.09,2.75,-69.12,-14.69,-24.06,-31.75,-26.56,0.72,0.50,0.29,0.37,70.81,3.14,56.62,0.00,0.00,0.00,-45.00,0,1,3,0
3109.37,Powered Ascent,71.40,-3.01,74.69,8.01,8.01,8.01,0.00,2.88,43.87,79.51,97525.05,29.80,-771902976.00,427047328.00,232.91,69.36,-3.73,-43.20,309.36,14,9.56,2.88,43.87,3.00,-70.69,-15.31,-24.06,-31.75,-26.56,0.73,0.50,0.29,0.37,70.80,3.06,55.92,0.00,0.00,0.00,-45.00,0,1,3,0
3109.38,Powered Ascent,71.43,-3.00,75.95,8.04,8.04,8.04,0.00,3.01,43.89,86.98,97438.56,29.80,-771902976.00,427047328.00,232.91,69.36,-3.73,-43.20,309.36,14,9.89,3.01,43.89,3.00,-70.69,-15.31,-24.06,-31.75,-26.56,0.73,0.50,0.29,0.36,70.79,2.97,55.21,0.00,0.00,0.00,-45.00,0,1,3,0
3109.39,Powered Ascent,71.43,-3.00,76.95,8.04,8.04,8.04,0.00,1.67,44.18,86.98,97438.56,29.80,-771902976.00,427047328.00,232.91,69.36,-3.73,-43.20,309.36,14,9.84,1.67,44.18,3.00,-72.00,-15.50,-19.25,-31.75,-27.25,0.73,0.50,0.29,0.36,70.79,2.97,55.21,0.00,0.00,0.00,-45.00,0,1,3,0
3109.40,Powered Ascent,71.44,-3.00,77.99,8.05,8.05,8.05,0.00,2.11,44.10,86.98,97438.56,29.80,-771902976.00,427047328.00,232.91,69.36,-3.73,-43.20,309.36,14,10.07,2.11,44.10,3.81,-73.12,-15.94,-19.25,-31.75,-27.25,0.73,0.51,0.28,0.36,70.80,2.79,53.76,0.00,0.00,0.00,-45.00,0,1,3,0
3109.41,Powered Ascent,71.46,-2.99,79.18,8.08,8.08,8.08,0.00,2.81,43.74,86.98,97438.56,29.80,-771902976.00,427047328.00,232.91,69.36,-3.73,-43.20,309.36,14,9.44,2.81,43.74,4.12,-74.19,-15.94,-19.25,-31.75,-27.25,0.74,0.51,0.28,0.35,70.80,2.71,53.02,0.00,0.00,0.00,-45.00,0,1,3,0
3109.42,Powered Ascent,71.49,-2.98,80.33,8.10,8.10,8.10,0.00,1.96,43.87,86.98,97438.56,29.80,-771902976.00,427047328.00,232.91,69.36,-3.73,-43.20,309.36,14,9.23,1.96,43.87,3.56,-76.56,-16.69,-19.25,-31.75,-27.25,0.74,0.51,0.27,0.35,70.80,2.62,52.27,0.00,0.00,0.00,-45.00,0,1,3,0
3109.43,Powered Ascent,71.52,-2.97,81.46,8.13,8.13,8.13,0.00,1.52,43.99,86.98,97438.56,29.80,-771902976.00,427047328.00,232.91,69.36,-3.73,-43.20,309.36,14,9.39,1.52,43.99,3.56,-76.56,-16.69,-19.25,-31.75,-27.25,0.74,0.51,0.27,0.34,70.80,2.53,51.50,0.00,0.00,0.00,-45.00,0,1,3,0
3109.44,Powered Ascent,71.52,-2.97,82.54,8.13,8.13,8.13,0.00,0.99,44.27,94.82,97438.56,29.80,-771902976.00,427047328.00,232.91,69.36,-3.73,-43.20,309.36,14,10.13,0.99,44.27,3.44,-77.62,-17.31,-15.69,-31.50,-27.56,0.74,0.51,0.27,0.34,70.80,2.53,51.50,0.00,0.00,0.00,-45.00,0,1,3,0
3109.45,Powered Ascent,71.53,-2.96,83.68,8.14,8.14,8.14,0.00,0.08,44.35,94.82,97347.88,29.80,-771902976.00,427047328.00,232.91,69.36,-3.73,-43.20,309.36,14,9.63,0.08,44.35,4.19,-79.06,-17.44,-15.69,-31.50,-27.56,0.74,0.52,0.26,0.33,70.82,2.35,49.93,0.00,0.00,0.00,-45.00,0,1,3,0
3109.46,Powered Ascent,71.56,-2.95,85.04,8.18,8.18,8.18,0.00,1.59,43.97,94.82,97347.88,29.80,-771902976.00,427047328.00,232.91,69.36,-3.73,-43.20,309.36,14,9.77,1.59,43.97,4.19,-82.06,-18.38,-15.69,-31.50,-27.56,0.75,0.52,0.26,0.33,70.83,2.26,49.12,0.00,0.00,0.00,-45.00,0,1,3,0
3109.47,Powered Ascent,71.59,-2.94,86.29,8.19,8.19,8.19,0.00,0.56,43.67,94.82,97347.88,29.80,-771902976.00,427047328.00,232.91,69.36,-3.73,-43.20,309.36,14,7.57,0.56,43.67,3.94,-84.44,-18.12,-15.69,-31.50,-27.56,0.75,0.52,0.25,0.32,70.83,2.15,48.29,0.00,0.00,0.00,-45.00,0,1,3,0
3109.48,Powered Ascent,71.60,-2.94,87.42,8.20,8.20,8.20,0.00,2.15,43.66,94.82,97347.88,29.80,-771902976.00,427047328.00,232.91,69.36,-3.73,-43.20,309.36,14,9.38,2.15,43.66,3.94,-84.44,-18.12,-15.69,-31.50,-27.56,0.75,0.52,0.25,0.32,70.82,2.05,47.45,0.00,0.00,0.00,-45.00,0,1,3,0
3109.49,Powered Ascent,71.61,-2.93,88.44,8.21,8.21,8.21,0.00,1.01,43.87,94.82,97347.88,29.80,-771902976.00,427047328.00,232.91,69.36,-3.73,-43.20,309.36,14,9.14,1.01,43.87,1.94,-85.56,-18.81,-12.25,-30.38,-27.06,0.75,0.52,0.25,0.32,70.82,2.05,47.45,0.00,0.00,0.00,-45.00,0,1,3,0
3109.50,Powered Ascent,71.61,-2.93,89.33,8.21,8.21,8.21,0.00,-0.10,44.33,94.82,97347.88,29.80,-771902976.00,427047328.00,232.91,69.36,-3.73,-43.20,309.36,14,9.97,-0.10,44.33,2.44,-86.56,-19.44,-12.25,-30.38,-27.06,0.75,0.53,0.24,0.31,70.82,1.86,45.73,0.00,0.00,0.00,-45.00,0,1,3,0
3109.51,Coasting,71.65,-2.92,90.81,8.24,8.24,8.24,0.00,-0.19,44.01,103.30,97249.75,29.79,-771902976.00,427047328.00,232.91,69.36,-3.73,-43.20,309.36,14,8.60,-0.19,44.01,3.06,-88.06,-19.62,-12.25,-30.38,-27.06,0.76,0.53,0.23,0.30,70.81,1.75,44.85,0.00,0.00,0.00,-45.00,0,1,3,0
3109.92,Coasting,75.08,-2.12,133.86,8.74,8.74,8.74,0.00,-3.09,43.84,162.32,96569.73,29.79,-771902912.00,427047232.00,233.60,70.07,-4.53,-42.51,309.36,12,1.34,-3.09,43.84,-10.44,-149.62,-27.31,-4.69,-18.75,-27.50,0.82,0.57,-0.06,-0.00,69.37,-5.50,-4.47,0.00,0.00,0.00,-45.00,0,1,3,0
3109.99,Coasting,75.26,-2.24,145.36,7.91,7.91,7.91,0.00,-3.04,43.72,173.66,96439.55,29.78,-771902912.00,427047232.00,233.60,70.07,-4.53,-42.51,309.36,12,-1.29,-3.04,43.72,-8.75,-155.69,-29.94,-10.19,-17.38,-29.56,0.82,0.56,-0.13,-0.07,69.89,-7.26,-15.01,0.00,0.00,0.00,-45.00,0,1,3,0
3110.00,Coasting,74.83,-2.45,149.11,7.02,7.02,7.02,0.00,-2.25,43.40,173.66,96439.55,29.78,-771902912.00,427047232.00,233.60,70.07,-4.53,-42.51,309.36,12,-1.73,-2.25,43.40,-8.25,-156.94,-30.94,-10.19,-17.38,-29.56,0.81,0.56,-0.14,-0.08,70.01,-7.49,-16.55,0.00,0.00,0.00,-45.00,0,1,3,0
3110.01,Coasting,74.48,-2.64,152.66,6.25,6.25,6.25,0.00,-2.79,43.61,173.66,96439.55,29.78,-771902912.00,427047232.00,233.60,70.07,-4.53,-42.51,309.36,12,-1.97,-2.79,43.61,-7.62,-157.25,-31.12,-10.19,-17.38,-29.56,0.81,0.56,-0.14,-0.09,70.14,-7.73,-18.10,0.00,0.00,0.00,-45.00,0,1,3,0
3110.02,Coasting,74.17,-2.80,155.84,5.57,5.57,5.57,0.00,-2.66,43.56,173.66,96439.55,29.78,-771902912.00,427047232.00,233.60,70.07,-4.53,-42.51,309.36,12,-1.77,-2.66,43.56,-7.12,-158.25,-31.06,-10.19,-17.38,-29.56,0.81,0.56,-0.15,-0.10,70.28,-7.96,-19.66,0.00,0.00,0.00,-45.00,0,1,3,0
3110.03,Coasting,73.89,-2.94,159.60,4.97,4.97,4.97,0.00,-2.31,43.42,186.02,96297.80,29.69,-771902912.00,427047232.00,233.60,70.07,-4.53,-42.51,309.36,12,-1.75,-2.31,43.42,-7.12,-158.25,-31.06,-12.69,-17.25,-29.38,0.81,0.55,-0.16,-0.11,70.43,-8.19,-21.23,0.00,0.00,0.00,-45.00,0,1,3,0
3110.04,Coasting,73.63,-3.07,162.87,4.44,4.44,4.44,0.00,-2.12,43.33,186.02,96297.80,29.69,-771902912.00,427047232.00,233.60,70.07,-4.53,-42.51,309.36,12,-2.47,-2.12,43.33,-6.69,-158.88,-31.81,-12.69,-17.25,-29.38,0.81,0.55,-0.16,-0.11,70.43,-8.19,-21.23,0.00,0.00,0.00,-45.00,0,1,3,0
3110.05,Coasting,73.40,-3.19,165.69,3.96,3.96,3.96,0.00,-2.20,43.36,186.02,96297.80,29.69,-771902912.00,427047232.00,233.60,70.07,-4.53,-42.51,309.36,12,-2.88,-2.20,43.36,-6.50,-159.25,-32.44,-12.69,-17.25,-29.38,0.80,0.55,-0.18,-0.13,70.78,-8.62,-24.39,0.00,0.00,0.00,-45.00,0,1,3,0
3110.06,Coasting,73.21,-3.30,168.83,3.51,3.51,3.51,0.00,-2.14,43.32,186.02,96297.80,29.69,-771902912.00,427047232.00,233.60,70.07,-4.53,-42.51,309.36,12,-2.86,-2.14,43.32,-5.69,-160.81,-33.25,-12.69,-17.25,-29.38,0.80,0.55,-0.19,-0.14,70.96,-8.83,-25.98,0.00,0.00,0.00,-45.00,0,1,3,0
3110.07,Coasting,73.03,-3.40,171.60,3.10,3.10,3.10,0.00,-1.63,43.13,186.02,96297.80,29.69,-771902912.00,427047232.00,233.60,70.07,-4.53,-42.51,309.36,12,-3.68,-1.63,43.13,-5.12,-161.88,-33.75,-12.69,-17.25,-29.38,0.80,0.55,-0.20,-0.15,71.17,-9.02,-27.59,0.00,0.00,0.00,-45.00,0,1,3,0
3110.08,Coasting,72.86,-3.48,174.03,2.73,2.73,2.73,0.00,-1.17,42.94,186.02,96297.80,29.69,-771902912.00,427047232.00,233.60,70.07,-4.53,-42.51,309.36,12,-3.57,-1.17,42.94,-5.12,-161.88,-33.75,-12.69,-17.25,-29.38,0.80,0.55,-0.21,-0.16,71.37,-9.22,-29.21,0.00,0.00,0.00,-45.00,0,1,3,0
3110.09,Coasting,72.70,-3.57,176.13,2.39,2.39,2.39,0.00,-1.37,43.01,186.02,96297.80,29.69,-771902912.00,427047232.00,233.60,70.07,-4.53,-42.51,309.36,12,-3.87,-1.37,43.01,-5.19,-162.50,-34.12,-15.88,-17.69,-29.56,0.80,0.55,-0.21,-0.16,71.37,-9.22,-29.21,0.00,0.00,0.00,-45.00,0,1,3,0
3110.10,Coasting,72.55,-3.64,178.73,2.08,2.08,2.08,0.00,-1.48,43.02,198.54,96154.36,29.66,-771902912.00,427047232.00,233.60,70.07,-4.53,-42.51,309.36,12,-2.96,-1.48,43.02,-5.31,-163.25,-34.56,-15.88,-17.69,-29.56,0.79,0.54,-0.23,-0.18,71.80,-9.57,-32.46,0.00,0.00,0.00,-45.00,0,1,3,0
3110.11,Coasting,72.43,-3.71,181.76,1.77,1.77,1.77,0.00,-1.16,42.97,198.54,96154.36,29.66,-771902912.00,427047232.00,233.60,70.07,-4.53,-42.51,309.36,12,-5.32,-1.16,42.97,-5.00,-163.81,-36.19,-15.88,-17.69,-29.56,0.79,0.54,-0.24,-0.19,72.03,-9.73,-34.10,0.00,0.00,0.00,-45.00,0,1,3,0
3110.12,Coasting,72.30,-3.78,184.46,1.49,1.49,1.49,0.00,-1.56,43.04,198.54,96154.36,29.66,-771902912.00,427047232.00,233.60,70.07,-4.53,-42.51,309.36,12,-3.82,-1.56,43.04,-4.56,-164.50,-36.81,-15.88,-17.69,-29.56,0.78,0.54,-0.25,-0.20,72.26,-9.88,-35.75,0.00,0.00,0.00,-45.00,0,1,3,0
3110.13,Coasting,72.19,-3.85,186.84,1.22,1.22,1.22,0.00,-0.83,42.81,198.54,96154.36,29.66,-771902912.00,427047232.00,233.60,70.07,-4.53,-42.51,309.36,12,-5.08,-0.83,42.81,-4.56,-164.50,-36.81,-15.88,-17.69,-29.56,0.78,0.54,-0.26,-0.21,72.50,-10.02,-37.41,0.00,0.00,0.00,-45.00,0,1,3,0
3110.14,Coasting,72.08,-3.90,188.93,0.98,0.98,0.98,0.00,-0.91,42.77,198.54,96154.36,29.66,-771902912.00,427047232.00,233.60,70.07,-4.53,-42.51,309.36,12,-3.92,-0.91,42.77,-4.69,-164.69,-37.06,-18.06,-17.06,-27.69,0.78,0.54,-0.26,-0.21,72.50,-10.02,-37.41,0.00,0.00,0.00,-45.00,0,1,3,0
3110.15,Coasting,71.97,-3.95,190.73,0.76,0.76,0.76,0.00,-1.02,42.86,198.54,96154.36,29.66,-771902912.00,427047232.00,233.60,70.07,-4.53,-42.51,309.36,12,-5.06,-1.02,42.86,-4.44,-165.19,-37.94,-18.06,-17.06,-27.69,0.77,0.53,-0.27,-0.23,73.00,-10.26,-40.74,0.00,0.00,0.00,-45.00,0,1,3,0
3110.16,Coasting,71.88,-4.01,193.69,0.53,0.53,0.53,0.00,-0.72,42.72,209.78,96025.77,29.71,-771902912.00,427047232.00,233.60,70.07,-4.53,-42.51,309.36,12,-4.90,-0.72,42.72,-5.12,-166.94,-39.25,-18.06,-17.06,-27.69,0.76,0.53,-0.28,-0.24,73.25,-10.37,-42.43,0.00,0.00,0.00,-45.00,0,1,3,0
3110.17,Coasting,71.79,-4.06,196.33,0.32,0.32,0.32,0.00,-0.50,42.60,209.78,96025.77,29.71,-771902912.00,427047232.00,233.60,70.07,-4.53,-42.51,309.36,12,-4.51,-0.50,42.60,-5.75,-168.00,-39.50,-18.06,-17.06,-27.69,0.76,0.52,-0.29,-0.25,73.50,-10.47,-44.12,0.00,0.00,0.00,-45.00,0,1,3,0
3110.18,Coasting,71.70,-4.11,198.84,0.11,0.11,0.11,0.00,-0.30,42.60,209.78,96025.77,29.71,-771902912.00,427047232.00,233.60,70.07,-4.53,-42.51,309.36,12,-5.62,-0.30,42.60,-5.75,-168.00,-39.50,-18.06,-17.06,-27.69,0.76,0.52,-0.30,-0.26,73.76,-10.55,-45.82,0.00,0.00,0.00,-45.00,0,1,3,0
3110.19,Coasting,71.62,-4.15,200.73,-0.06,-0.06,-0.06,0.00,0.52,42.16,209.78,96025.77,29.71,-771902912.00,427047232.00,233.60,70.07,-4.53,-42.51,309.36,12,-3.85,0.52,42.16,-5.69,-168.62,-40.25,-21.25,-16.50,-26.06,0.76,0.52,-0.30,-0.26,73.76,-10.55,-45.82,0.00,0.00,0.00,-45.00,0,1,3,0
3110.20,Coasting,71.54,-4.19,202.69,-0.23,-0.23,-0.23,0.00,0.97,42.08,209.78,96025.77,29.71,-771902912.00,427047232.00,233.60,70.07,-4.53,-42.51,309.36,12,-4.83,0.97,42.08,-7.06,-169.56,-40.69,-21.25,-16.50,-26.06,0.75,0.52,-0.32,-0.28,74.26,-10.70,-49.28,0.00,0.00,0.00,-45.00,0,1,3,0
3110.21,Coasting,71.46,-4.23,204.88,-0.42,-0.42,-0.42,0.00,0.74,42.29,209.78,96025.77,29.71,-771902912.00,427047232.00,233.60,70.07,-4.53,-42.51,309.36,12,-6.41,0.74,42.29,-7.06,-170.94,-41.12,-21.25,-16.50,-26.06,0.74,0.51,-0.33,-0.29,74.51,-10.77,-51.01,0.00,0.00,0.00,-45.00,0,1,3,0
3110.22,Coasting,71.39,-4.27,207.52,-0.59,-0.59,-0.59,0.00,0.56,42.26,220.87,96025.77,29.71,-771902912.00,427047232.00,233.60,70.07,-4.53,-42.51,309.36,12,-5.48,0.56,42.26,-7.25,-173.06,-40.56,-21.25,-16.50,-26.06,0.73,0.51,-0.34,-0.30,74.76,-10.83,-52.76,0.00,0.00,0.00,-45.00,0,1,3,0
3110.23,Coasting,71.32,-4.31,210.04,-0.74,-0.74,-0.74,0.00,0.71,42.13,220.87,95898.94,29.78,-771902912.00,427047232.00,233.60,70.07,-4.53,-42.51,309.36,12,-4.84,0.71,42.13,-7.25,-173.06,-40.56,-21.25,-16.50,-26.06,0.73,0.50,-0.34,-0.31,75.02,-10.89,-54.52,0.00,0.00,0.00,-45.00,1,1,3,0
3110.24,Coasting,71.25,-4.34,211.92,-0.88,-0.88,-0.88,0.00,0.39,42.28,220.87,95898.94,29.78,-771902912.00,427047232.00,233.60,70.07,-4.53,-42.51,309.36,12,-5.41,0.39,42.28,-7.69,-174.06,-40.50,-23.38,-18.56,-22.75,0.73,0.50,-0.34,-0.31,75.02,-10.89,-54.52,0.00,0.00,0.00,-45.00,1,1,3,0
3110.25,Coasting,71.19,-4.37,213.89,-1.02,-1.02,-1.02,0.00,0.69,42.23,220.87,95898.94,29.78,-771902912.00,427047232.00,233.60,70.07,-4.53,-42.51,309.36,12,-5.89,0.69,42.23,-8.19,-175.31,-41.44,-23.38,-18.56,-22.75,0.72,0.50,-0.36,-0.33,75.54,-10.97,-58.08,0.00,0.00,0.00,-45.00,1,1,3,0
3110.26,Coasting,71.13,-4.41,216.30,-1.19,-1.19,-1.19,0.00,0.72,42.33,220.87,95898.94,29.78,-771902912.00,427047232.00,233.60,70.07,-4.53,-42.51,309.36,12,-6.84,0.72,42.33,-7.69,-177.06,-42.25,-23.38,-18.56,-22.75,0.71,0.49,-0.37,-0.34,75.80,-11.00,-59.88,0.00,0.00,0.00,-45.00,1,1,3,0
3110.27,Coasting,71.07,-4.44,218.43,-1.33,-1.33,-1.33,0.00,1.74,41.95,220.87,95898.94,29.78,-771902912.00,427047232.00,233.60,70.07,-4.53,-42.51,309.36,12,-6.30,1.74,41.95,-7.56,-177.88,-42.19,-23.38,-18.56,-22.75,0.70,0.49,-0.38,-0.35,76.08,-11.02,-61.68,0.00,0.00,0.00,-45.00,1,1,3,0
3110.28,Coasting,71.01,-4.47,220.29,-1.46,-1.46,-1.46,0.00,1.62,41.85,220.87,95898.94,29.78,-771902912.00,427047232.00,233.60,70.07,-4.53,-42.51,309.36,12,-5.35,1.62,41.85,-7.56,-177.88,-42.19,-23.38,-18.56,-22.75,0.70,0.48,-0.39,-0.36,76.35,-11.04,-63.49,0.00,0.00,0.00,-45.00,1,1,3,0
3110.29,Coasting,70.95,-4.49,222.46,-1.57,-1.57,-1.57,0.00,2.07,41.73,233.54,95754.28,29.78,-771902912.00,427047232.00,233.60,70.07,-4.53,-42.51,309.36,12,-5.50,2.07,41.73,-7.81,-179.31,-41.62,-25.69,-18.38,-20.50,0.70,0.48,-0.39,-0.36,76.35,-11.04,-63.49,0.00,0.00,0.00,-45.00,1,1,3,0
3110.30,Coasting,70.90,-4.51,224.36,-1.68,-1.68,-1.68,0.00,1.18,42.04,233.54,95754.28,29.78,-771902912.00,427047232.00,233.60,70.07,-4.53,-42.51,309.36,12,-5.98,1.18,42.04,-8.62,-180.44,-42.00,-25.69,-18.38,-20.50,0.68,0.47,-0.41,-0.38,76.89,-11.07,-67.17,0.00,0.00,0.00,-45.00,1,1,3,0
3110.31,Coasting,70.84,-4.54,226.89,-1.82,-1.82,-1.82,0.00,2.26,41.94,233.54,95754.28,29.78,-771902912.00,427047232.00,233.60,70.07,-4.53,-42.51,309.36,12,-7.41,2.26,41.94,-7.88,-182.75,-41.69,-25.69,-18.38,-20.50,0.68,0.47,-0.41,-0.39,77.16,-11.08,-69.01,0.00,0.00,0.00,-45.00,1,1,3,0
3110.32,Coasting,70.79,-4.57,229.14,-1.93,-1.93,-1.93,0.00,2.13,41.68,233.54,95754.28,29.78,-771902912.00,427047232.00,233.60,70.07,-4.53,-42.51,309.36,12,-5.45,2.13,41.68,-6.88,-184.12,-41.19,-25.69,-18.38,-20.50,0.67,0.46,-0.42,-0.40,77.45,-11.08,-70.87,0.00,0.00,0.00,-45.00,1,1,3,0
3110.33,Coasting,70.74,-4.59,231.31,-2.04,-2.04,-2.04,0.00,2.16,41.67,233.54,95754.28,29.78,-771902912.00,427047232.00,233.60,70.07,-4.53,-42.51,309.36,12,-5.51,2.16,41.67,-6.88,-184.12,-41.19,-25.69,-18.38,-20.50,0.66,0.46,-0.43,-0.41,77.74,-11.07,-72.75,0.00,0.00,0.00,-45.00,2,1,3,0
3110.34,Coasting,70.69,-4.60,232.85,-2.13,-2.13,-2.13,0.00,2.56,41.57,233.54,95754.28,29.78,-771902912.00,427047232.00,233.60,70.07,-4.53,-42.51,309.36,12,-5.58,2.56,41.57,-8.12,-185.38,-41.69,-27.50,-18.50,-18.06,0.66,0.46,-0.43,-0.41,77.74,-11.07,-72.75,0.00,0.00,0.00,-45.00,2,1,3,0
3110.35,Coasting,70.65,-4.62,234.50,-2.23,-2.23,-2.23,0.00,3.05,41.66,233.54,95754.28,29.78,-771902912.00,427047232.00,233.60,70.07,-4.53,-42.51,309.36,12,-7.02,3.05,41.66,-8.31,-186.56,-41.38,-27.50,-18.50,-18.06,0.64,0.45,-0.45,-0.43,78.30,-11.04,-76.53,0.00,0.00,0.00,-45.00,2,1,3,0
3110.36,Coasting,70.60,-4.64,236.98,-2.34,-2.34,-2.34,0.00,3.17,41.47,246.44,95607.14,29.78,-771902912.00,427047232.00,233.60,70.07,-4.53,-42.51,309.36,12,-5.99,3.17,41.47,-7.81,-188.88,-40.88,-27.50,-18.50,-18.06,0.64,0.44,-0.46,-0.44,78.59,-11.02,-78.43,0.00,0.00,0.00,-45.00,2,1,3,0
3110.37,Coasting,70.55,-4.66,239.37,-2.43,-2.43,-2.43,0.00,3.71,41.33,246.44,95607.14,29.78,-771902912.00,427047232.00,233.60,70.07,-4.53,-42.51,309.36,12,-5.97,3.71,41.33,-7.50,-189.88,-41.06,-27.50,-18.50,-18.06,0.63,0.44,-0.46,-0.45,78.88,-10.98,-80.35,0.00,0.00,0.00,-45.00,2,1,3,0
3110.38,Coasting,70.51,-4.68,241.67,-2.53,-2.53,-2.53,0.00,3.08,41.44,246.44,95607.14,29.78,-771902912.00,427047232.00,233.60,70.07,-4.53,-42.51,309.36,12,-5.79,3.08,41.44,-7.50,-189.88,-41.06,-27.50,-18.50,-18.06,0.62,0.43,-0.47,-0.46,79.18,-10.95,-82.28,0.00,0.00,0.00,-45.00,2,1,3,0
3110.39,Coasting,70.47,-4.69,243.33,-2.60,-2.60,-2.60,0.00,3.70,41.36,246.44,95607.14,29.78,-771902912.00,427047232.00,233.60,70.07,-4.53,-42.51,309.36,12,-6.20,3.70,41.36,-7.56,-191.38,-40.81,-27.50,-18.50,-13.50,0.62,0.43,-0.47,-0.46,79.18,-10.95,-82.28,0.00,0.00,0.00,-45.00,2,1,3,0
3110.40,Coasting,70.43,-4.70,245.12,-2.68,-2.68,-2.68,0.00,3.86,41.31,246.44,95607.14,29.78,-771902912.00,427047232.00,233.60,70.07,-4.53,-42.51,309.36,12,-6.17,3.86,41.31,-7.75,-192.50,-40.94,-27.50,-18.50,-13.50,0.60,0.42,-0.49,-0.48,79.75,-10.86,-86.17,0.00,0.00,0.00,-45.00,2,1,3,0
3110.41,Coasting,70.38,-4.72,247.20,-2.77,-2.77,-2.77,0.00,4.08,41.28,246.44,95607.14,29.78,-771902912.00,427047232.00,233.60,70.07,-4.53,-42.51,309.36,12,-6.27,4.08,41.28,-8.25,-193.50,-40.19,-27.50,-18.50,-13.50,0.59,0.41,-0.50,-0.49,80.05,-10.80,-88.13,0.00,0.00,0.00,-45.00,2,1,3,0
3110.42,Coasting,70.34,-4.73,249.68,-2.86,-2.86,-2.86,0.00,3.75,41.31,258.58,95468.88,29.78,-771902912.00,427047232.00,233.60,70.07,-4.53,-42.51,309.36,12,-6.12,3.75,41.31,-7.88,-195.38,-40.25,-27.50,-18.50,-13.50,0.58,0.40,-0.51,-0.50,80.34,-10.74,-90.09,0.00,0.00,0.00,-45.00,2,1,3,0
3110.43,Coasting,70.30,-4.74,252.08,-2.94,-2.94,-2.94,0.00,2.50,41.49,258.58,95468.88,29.78,-771902912.00,427047232.00,233.60,70.07,-4.53,-42.51,309.36,12,-5.85,2.50,41.49,-7.88,-195.38,-40.25,-27.50,-18.50,-13.50,0.57,0.40,-0.51,-0.50,80.63,-10.66,-92.05,0.00,0.00,0.00,-45.00,2,1,3,0
3110.44,Coasting,70.26,-4.75,254.01,-3.01,-3.01,-3.01,0.00,4.68,41.13,258.58,95468.88,29.78,-771902912.00,427047232.00,233.60,70.07,-4.53,-42.51,309.36,12,-6.21,4.68,41.13,-8.06,-195.12,-41.19,-29.50,-18.38,-10.50,0.57,0.40,-0.51,-0.50,80.63,-10.66,-92.05,0.00,0.00,0.00,-45.00,2,1,3,0
3110.45,Coasting,70.23,-4.76,255.69,-3.07,-3.07,-3.07,0.00,4.63,41.16,258.58,95468.88,29.78,-771902912.00,427047232.00,233.60,70.07,-4.53,-42.51,309.36,12,-6.32,4.63,41.16,-7.50,-195.44,-41.69,-29.50,-18.38,-10.50,0.55,0.38,-0.53,-0.52,81.21,-10.46,-95.99,0.00,0.00,0.00,-45.00,2,1,3,0
3110.46,Coasting,70.19,-4.77,258.05,-3.15,-3.15,-3.15,0.00,5.48,41.02,258.58,95468.88,29.78,-771902912.00,427047232.00,233.60,70.07,-4.53,-42.51,309.36,12,-6.41,5.48,41.02,-5.94,-197.50,-40.75,-29.50,-18.38,-10.50,0.54,0.38,-0.54,-0.53,81.51,-10.36,-97.98,0.00,0.00,0.00,-45.00,2,1,3,0
3110.47,Coasting,70.15,-4.78,260.15,-3.22,-3.22,-3.22,0.00,3.59,41.11,258.58,95468.88,29.78,-771902912.00,427047232.00,233.60,70.07,-4.53,-42.51,309.36,12,-5.21,3.59,41.11,-6.44,-197.75,-41.06,-29.50,-18.38,-10.50,0.53,0.37,-0.54,-0.54,81.80,-10.25,-99.95,0.00,0.00,0.00,-45.00,2,1,3,0
3110.49,Coasting,70.11,-4.79,262.65,-3.27,-3.27,-3.27,0.00,3.70,40.94,271.28,95468.88,29.78,-771902912.00,427047232.00,233.60,70.07,-4.53,-42.51,309.36,12,-4.46,3.70,40.94,-6.44,-197.75,-41.06,-28.38,-20.00,-7.25,0.52,0.36,-0.55,-0.55,82.09,-10.11,-101.95,0.00,0.00,0.00,-45.00,2,1,3,0
3110.49,Coasting,70.08,-4.79,264.49,-3.32,-3.32,-3.32,0.00,5.46,40.87,271.28,95324.41,29.77,-771902912.00,427047232.00,233.60,70.07,-4.53,-42.51,309.36,12,-5.64,5.46,40.87,-6.06,-198.44,-42.25,-28.38,-20.00,-7.25,0.52,0.36,-0.55,-0.55,82.09,-10.11,-101.95,0.00,0.00,0.00,-45.00,2,1,3,0
3110.50,Coasting,70.05,-4.80,266.45,-3.37,-3.37,-3.37,0.00,5.98,40.88,271.28,95324.41,29.77,-771902912.00,427047232.00,233.60,70.07,-4.53,-42.51,309.36,12,-6.14,5.98,40.88,-8.00,-198.44,-43.19,-28.38,-20.00,-7.25,0.50,0.34,-0.56,-0.56,82.64,-9.81,-105.95,0.00,0.00,0.00,-45.00,2,1,3,0
3110.51,Coasting,70.02,-4.80,268.73,-3.44,-3.44,-3.44,0.00,5.10,40.93,271.28,95324.41,29.77,-771902912.00,427047232.00,233.60,70.07,-4.53,-42.51,309.36,12,-5.82,5.10,40.93,-6.44,-200.19,-42.31,-28.38,-20.00,-7.25,0.48,0.34,-0.57,-0.57,82.91,-9.64,-107.95,0.00,0.00,0.00,-45.00,2,1,3,0
3110.52,Coasting,69.98,-4.81,270.94,-3.49,-3.49,-3.49,0.00,3.91,40.94,271.28,95324.41,29.77,-771902912.00,427047232.00,233.60,70.07,-4.53,-42.51,309.36,12,-5.12,3.91,40.94,-5.19,-201.81,-42.19,-28.38,-20.00,-7.25,0.47,0.33,-0.58,-0.58,83.19,-9.47,-109.97,0.00,0.00,0.00,-45.00,2,1,3,0
3110.53,Coasting,69.94,-4.81,273.07,-3.54,-3.54,-3.54,0.00,5.10,40.81,271.28,95324.41,29.77,-771902912.00,427047232.00,233.60,70.07,-4.53,-42.51,309.36,12,-5.32,5.10,40.81,-5.19,-201.81,-42.19,-28.38,-20.00,-7.25,0.46,0.32,-0.58,-0.59,83.46,-9.28,-111.99,0.00,0.00,0.00,-45.00,2,1,3,0
3110.54,Coasting,69.92,-4.81,274.55,-3.58,-3.58,-3.58,0.00,6.34,40.58,271.28,95324.41,29.77,-771902912.00,427047232.00,233.60,70.07,-4.53,-42.51,309.36,12,-4.82,6.34,40.58,-6.50,-202.06,-43.94,-28.38,-19.75,-2.56,0.46,0.32,-0.58,-0.59,83.46,-9.28,-111.99,0.00,0.00,0.00,-45.00,2,1,3,0
3110.55,Coasting,69.89,-4.81,276.65,-3.62,-3.62,-3.62,0.00,6.19,40.80,284.83,95170.50,29.77,-771902912.00,427047232.00,233.60,70.07,-4.53,-42.51,309.36,12,-6.10,6.19,40.80,-6.50,-202.44,-43.56,-28.38,-19.75,-2.56,0.44,0.30,-0.60,-0.60,83.96,-8.86,-116.03,0.00,0.00,0.00,-45.00,2,1,3,0
3110.56,Coasting,69.85,-4.81,279.26,-3.69,-3.69,-3.69,0.00,5.20,40.87,284.83,95170.50,29.77,-771902912.00,427047232.00,233.60,70.07,-4.53,-42.51,309.36,12,-6.01,5.20,40.87,-6.38,-204.00,-43.56,-28.38,-19.75,-2.56,0.42,0.30,-0.60,-0.61,84.21,-8.65,-118.06,0.00,0.00,0.00,-45.00,2,1,3,0
3110.57,Coasting,69.82,-4.82,281.59,-3.74,-3.74,-3.74,0.00,4.44,40.80,284.83,95170.50,29.77,-771902912.00,427047232.00,233.60,70.07,-4.53,-42.51,309.36,12,-5.34,4.44,40.80,-7.69,-204.00,-45.50,-28.38,-19.75,-2.56,0.41,0.29,-0.61,-0.62,84.44,-8.40,-120.09,0.00,0.00,0.00,-45.00,2,1,3,0
3110.58,Coasting,69.79,-4.82,283.66,-3.78,-3.78,-3.78,0.00,6.33,40.64,284.83,95170.50,29.77,-771902912.00,427047232.00,233.60,70.07,-4.53,-42.51,309.36,12,-5.38,6.33,40.64,-7.69,-204.00,-45.50,-28.38,-19.75,-2.56,0.40,0.28,-0.61,-0.62,84.66,-8.15,-122.13,0.00,0.00,0.00,-45.00,2,1,3,0
3110.59,Coasting,69.77,-4.81,285.46,-3.81,-3.81,-3.81,0.00,7.03,40.46,284.83,95170.50,29.77,-771902912.00,427047232.00,233.60,70.07,-4.53,-42.51,309.36,12,-4.64,7.03,40.46,-7.50,-205.25,-45.56,-27.25,-19.56,2.69,0.40,0.28,-0.61,-0.62,84.66,-8.15,-122.13,0.00,0.00,0.00,-45.00,2,1,3,0
3110.60,Coasting,69.75,-4.81,287.01,-3.84,-3.84,-3.84,0.00,6.68,40.60,284.83,95170.50,29.77,-771902912.00,427047232.00,233.60,70.07,-4.53,-42.51,309.36,12,-5.38,6.68,40.60,-8.81,-206.12,-46.19,-27.25,-19.56,2.69,0.37,0.26,-0.62,-0.64,85.05,-7.63,-126.23,0.00,0.00,0.00,-45.00,2,1,3,0
3110.61,Coasting,69.71,-4.81,289.29,-3.88,-3.88,-3.88,0.00,5.79,40.57,284.83,95170.50,29.77,-771902912.00,427047232.00,233.60,70.07,-4.53,-42.51,309.36,12,-4.88,5.79,40.57,-8.88,-206.94,-45.25,-27.25,-19.56,2.69,0.36,0.25,-0.63,-0.64,85.23,-7.36,-128.29,0.00,0.00,0.00,-45.00,2,1,3,0
3110.62,Coasting,69.68,-4.81,291.78,-3.91,-3.91,-3.91,0.00,5.50,40.53,299.06,95008.98,29.77,-771902912.00,427047232.00,233.60,70.07,-4.53,-42.51,309.36,12,-4.61,5.50,40.53,-8.31,-208.88,-46.00,-27.25,-19.56,2.69,0.35,0.24,-0.63,-0.65,85.42,-7.08,-130.36,0.00,0.00,0.00,-45.00,2,1,3,0
3110.64,Coasting,69.65,-4.80,294.19,-3.95,-3.95,-3.95,0.00,6.84,40.50,299.06,95008.98,29.77,-771902912.00,427047232.00,233.60,70.07,-4.53,-42.51,309.36,12,-4.90,6.84,40.50,-8.31,-208.88,-46.00,-27.25,-19.56,2.69,0.33,0.23,-0.64,-0.65,85.57,-6.80,-132.44,0.00,0.00,0.00,-45.00,2,1,3,0
3110.64,Coasting,69.63,-4.80,295.94,-3.97,-3.97,-3.97,0.00,5.84,40.49,299.06,95008.98,29.77,-771902912.00,427047232.00,233.60,70.07,-4.53,-42.51,309.36,12,-4.61,5.84,40.49,-9.44,-209.69,-46.44,-24.06,-20.56,6.38,0.33,0.23,-0.64,-0.65,85.57,-6.80,-132.44,0.00,0.00,0.00,-45.00,2,1,3,0
3110.65,Coasting,69.61,-4.79,297.83,-3.99,-3.99,-3.99,0.00,7.29,40.40,299.06,95008.98,29.77,-771902912.00,427047232.00,233.60,70.07,-4.53,-42.51,309.36,12,-4.34,7.29,40.40,-9.19,-210.81,-46.44,-24.06,-20.56,6.38,0.30,0.21,-0.65,-0.67,85.87,-6.21,-136.61,0.00,0.00,0.00,-45.00,2,1,3,0
3110.66,Coasting,69.58,-4.79,300.06,-4.01,-4.01,-4.01,0.00,7.08,40.35,299.06,95008.98,29.77,-771902912.00,427047232.00,233.60,70.07,-4.53,-42.51,309.36,12,-3.92,7.08,40.35,-10.06,-212.44,-46.62,-24.06,-20.56,6.38,0.29,0.20,-0.65,-0.67,85.99,-5.90,-138.71,0.00,0.00,0.00,-45.00,2,1,3,0
3110.68,Coasting,69.55,-4.78,302.21,-4.03,-4.03,-4.03,0.00,6.63,40.35,299.06,95008.98,29.77,-771902912.00,427047232.00,233.60,70.07,-4.53,-42.51,309.36,12,-3.89,6.63,40.35,-10.19,-212.81,-45.38,-24.06,-20.56,6.38,0.28,0.20,-0.65,-0.68,86.10,-5.61,-140.80,0.00,0.00,0.00,-45.00,2,1,3,0
3110.69,Coasting,69.53,-4.78,304.76,-4.07,-4.07,-4.07,0.00,7.00,40.49,312.89,94852.30,29.77,-771902912.00,427047232.00,233.60,70.07,-4.53,-42.51,309.36,12,-5.14,7.00,40.49,-10.19,-212.81,-45.38,-24.06,-20.56,6.38,0.26,0.19,-0.66,-0.68,86.20,-5.31,-142.90,0.00,0.00,0.00,-45.00,2,1,3,0
3110.69,Coasting,69.51,-4.77,306.62,-4.09,-4.09,-4.09,0.00,6.74,40.51,312.89,94852.30,29.77,-771902912.00,427047232.00,233.60,70.07,-4.53,-42.51,309.36,12,-5.32,6.74,40.51,-9.56,-213.50,-45.38,-21.50,-21.19,10.06,0.26,0.19,-0.66,-0.68,86.20,-5.31,-142.90,0.00,0.00,0.00,-45.00,2,1,3,0
3110.70,Coasting,69.49,-4.76,308.63,-4.11,-4.11,-4.11,0.00,6.50,40.43,312.89,94852.30,29.77,-771902912.00,427047232.00,233.60,70.07,-4.53,-42.51,309.36,12,-4.79,6.50,40.43,-8.94,-214.19,-45.31,-21.50,-21.19,10.06,0.23,0.17,-0.66,-0.69,86.41,-4.68,-147.12,0.00,0.00,0.00,-45.00,2,1,3,0
3110.71,Coasting,69.46,-4.76,310.98,-4.13,-4.13,-4.13,0.00,7.46,40.35,312.89,94852.30,29.77,-771902912.00,427047232.00,233.60,70.07,-4.53,-42.51,309.36,12,-4.02,7.46,40.35,-7.56,-215.19,-46.56,-21.50,-21.19,10.06,0.22,0.15,-0.67,-0.69,86.50,-4.36,-149.23,0.00,0.00,0.00,-45.00,2,1,3,0
3110.73,Coasting,69.44,-4.75,313.26,-4.15,-4.15,-4.15,0.00,5.20,40.28,312.89,94852.30,29.77,-771902912.00,427047232.00,233.60,70.07,-4.53,-42.51,309.36,12,-3.66,5.20,40.28,-8.56,-216.06,-47.19,-21.50,-21.19,10.06,0.20,0.14,-0.67,-0.70,86.57,-4.03,-151.35,0.00,0.00,0.00,-45.00,2,1,3,0
3110.74,Coasting,69.41,-4.74,315.48,-4.16,-4.16,-4.16,0.00,5.65,40.29,312.89,94852.30,29.77,-771902912.00,427047232.00,233.60,70.07,-4.53,-42.51,309.36,12,-3.89,5.65,40.29,-8.56,-216.06,-47.19,-21.50,-21.19,10.06,0.19,0.13,-0.67,-0.70,86.63,-3.70,-153.47,0.00,0.00,0.00,-45.00,1,1,3,0
3110.75,Coasting,69.39,-4.73,317.22,-4.18,-4.18,-4.18,0.00,6.92,40.41,312.89,94852.30,29.77,-771902912.00,427047232.00,233.60,70.07,-4.53,-42.51,309.36,12,-5.14,6.92,40.41,-8.75,-216.62,-47.31,-19.75,-22.56,12.69,0.19,0.13,-0.67,-0.70,86.63,-3.70,-153.47,0.00,0.00,0.00,-45.00,1,1,3,0
3110.75,Coasting,69.38,-4.72,319.14,-4.20,-4.20,-4.20,0.00,7.62,40.38,326.84,94694.48,29.76,-771902912.00,427047232.00,233.60,70.07,-4.53,-42.51,309.36,12,-4.65,7.62,40.38,-9.81,-216.56,-47.75,-19.75,-22.56,12.69,0.16,0.11,-0.68,-0.71,86.69,-3.02,-157.73,0.00,0.00,0.00,-45.00,1,1,3,0
3110.76,Coasting,69.35,-4.71,321.82,-4.21,-4.21,-4.21,0.00,6.91,40.28,326.84,94694.48,29.76,-771902912.00,427047232.00,233.60,70.07,-4.53,-42.51,309.36,12,-3.83,6.91,40.28,-7.50,-218.00,-48.69,-19.75,-22.56,12.69,0.14,0.10,-0.68,-0.71,86.73,-2.66,-159.86,0.00,0.00,0.00,-45.00,1,1,3,0
3110.78,Coasting,69.33,-4.70,324.22,-4.22,-4.22,-4.22,0.00,7.09,40.23,326.84,94694.48,29.76,-771902912.00,427047232.00,233.60,70.07,-4.53,-42.51,309.36,12,-3.02,7.09,40.23,-7.31,-218.69,-48.25,-19.75,-22.56,12.69,0.13,0.09,-0.68,-0.72,86.75,-2.32,-162.00,0.00,0.00,0.00,-45.00,1,1,3,0
3110.79,Coasting,69.30,-4.69,326.55,-4.24,-4.24,-4.24,0.00,5.52,40.20,326.84,94694.48,29.76,-771902912.00,427047232.00,233.60,70.07,-4.53,-42.51,309.36,12,-3.88,5.52,40.20,-7.31,-218.69,-48.25,-13.25,-23.19,16.56,0.11,0.08,-0.68,-0.72,86.75,-1.97,-164.17,0.00,0.00,0.00,-45.00,1,1,3,0
3110.79,Coasting,69.29,-4.68,328.20,-4.24,-4.24,-4.24,0.00,6.69,40.24,326.84,94694.48,29.76,-771902912.00,427047232.00,233.60,70.07,-4.53,-42.51,309.36,12,-3.89,6.69,40.24,-8.69,-221.25,-48.38,-13.25,-23.19,16.56,0.11,0.08,-0.68,-0.72,86.75,-1.97,-164.17,0.00,0.00,0.00,-45.00,1,1,3,0
3110.80,Coasting,69.28,-4.67,330.01,-4.24,-4.24,-4.24,0.00,7.58,40.25,326.84,94694.48,29.76,-771902912.00,427047232.00,233.60,70.07,-4.53,-42.51,309.36,12,-3.51,7.58,40.25,-8.69,-221.25,-48.38,-13.25,-23.19,16.56,0.08,0.06,-0.68,-0.72,86.70,-1.27,-168.51,0.00,0.00,0.00,-45.00,1,1,3,0
3110.81,Coasting,69.26,-4.65,332.61,-4.25,-4.25,-4.25,0.00,6.78,40.21,341.37,94530.20,29.77,-771902912.00,427047232.00,233.60,70.07,-4.53,-42.51,309.36,12,-3.61,6.78,40.21,-9.12,-222.00,-48.81,-13.25,-23.19,16.56,0.06,0.05,-0.68,-0.72,86.67,-0.93,-170.69,0.00,0.00,0.00,-45.00,1,1,3,0
3110.83,Coasting,69.23,-4.64,335.14,-4.27,-4.27,-4.27,0.00,6.93,40.22,341.37,94530.20,29.77,-771902912.00,427047232.00,233.60,70.07,-4.53,-42.51,309.36,12,-4.21,6.93,40.22,-8.94,-224.38,-49.12,-13.25,-23.19,16.56,0.05,0.04,-0.68,-0.73,86.61,-0.58,-172.89,0.00,0.00,0.00,-45.00,1,1,3,0
3110.84,Coasting,69.21,-4.63,337.60,-4.28,-4.28,-4.28,0.00,6.17,40.15,341.37,94530.20,29.77,-771902912.00,427047232.00,233.60,70.07,-4.53,-42.51,309.36,12,-3.49,6.17,40.15,-8.94,-224.38,-49.12,-13.25,-23.19,16.56,0.03,0.03,-0.68,-0.73,86.53,-0.24,-175.09,0.00,0.00,0.00,-45.00,1,1,3,0
3110.84,Coasting,69.20,-4.62,339.38,-4.28,-4.28,-4.28,0.00,6.90,40.19,341.37,94530.20,29.77,-771902912.00,427047232.00,233.60,70.07,-4.53,-42.51,309.36,12,-4.26,6.90,40.19,-9.56,-224.88,-48.69,-9.19,-23.19,15.50,0.03,0.03,-0.68,-0.73,86.53,-0.24,-175.09,0.00,0.00,0.00,-45.00,1,1,3,0
3110.85,Coasting,69.19,-4.60,341.31,-4.28,-4.28,-4.28,0.00,6.65,40.16,341.37,94530.20,29.77,-771902912.00,427047232.00,233.60,70.07,-4.53,-42.51,309.36,12,-3.25,6.65,40.16,-9.94,-225.19,-49.56,-9.19,-23.19,15.50,0.00,0.01,-0.68,-0.73,86.35,0.44,-179.51,0.00,0.00,0.00,-45.00,1,1,3,0
3110.87,Coasting,69.16,-4.59,343.81,-4.28,-4.28,-4.28,0.00,8.38,40.26,341.37,94530.20,29.77,-771902912.00,427047232.00,233.60,70.07,-4.53,-42.51,309.36,12,-2.44,8.38,40.26,-7.62,-227.25,-48.75,-9.19,-23.19,15.50,-0.02,-0.01,-0.68,-0.73,86.25,0.77,178.26,0.00,0.00,0.00,-45.00,1,1,3,0
3110.88,Coasting,69.14,-4.57,346.03,-4.28,-4.28,-4.28,0.00,6.17,40.11,341.37,94530.20,29.77,-771902912.00,427047232.00,233.60,70.07,-4.53,-42.51,309.36,12,-2.64,6.17,40.11,-7.69,-228.25,-48.06,-9.19,-23.19,15.50,-0.03,-0.02,-0.68,-0.73,86.14,1.09,176.03,0.00,0.00,0.00,-45.00,1,1,3,0
3110.89,Coasting,69.13,-4.56,348.44,-4.29,-4.29,-4.29,0.00,5.30,40.01,357.01,94353.75,29.77,-771902912.00,427047232.00,233.60,70.07,-4.53,-42.51,309.36,12,-4.18,5.30,40.01,-7.69,-228.25,-48.06,-9.19,-23.19,15.50,-0.05,-0.03,-0.68,-0.73,86.00,1.42,173.79,0.00,0.00,0.00,-45.00,1,1,3,0
3110.90,Coasting,69.12,-4.54,350.57,-4.30,-4.30,-4.30,0.00,5.46,39.98,357.01,94353.75,29.77,-771902912.00,427047232.00,233.60,70.07,-4.53,-42.51,309.36,12,-4.74,5.46,39.98,-9.31,-228.25,-49.56,-4.56,-23.50,17.75,-0.05,-0.03,-0.68,-0.73,86.00,1.42,173.79,0.00,0.00,0.00,-45.00,1,1,3,0
3110.90,Coasting,69.11,-4.53,352.44,-4.30,-4.30,-4.30,0.00,7.06,40.10,357.01,94353.75,29.77,-771902912.00,427047232.00,233.60,70.07,-4.53,-42.51,309.36,12,-3.99,7.06,40.10,-9.75,-228.75,-49.44,-4.56,-23.50,17.75,-0.08,-0.05,-0.68,-0.73,85.68,2.06,169.30,0.00,0.00,0.00,-45.00,1,1,3,0
3110.92,Coasting,69.08,-4.52,355.09,-4.30,-4.30,-4.30,0.00,6.70,40.10,357.01,94353.75,29.77,-771902912.00,427047232.00,233.60,70.07,-4.53,-42.51,309.36,12,-3.07,6.70,40.10,-8.19,-230.00,-49.75,-4.56,-23.50,17.75,-0.10,-0.06,-0.68,-0.73,85.52,2.37,167.04,0.00,0.00,0.00,-45.00,1,1,3,0
3110.93,Coasting,69.08,-4.53,357.47,-4.28,-4.28,-4.28,0.00,6.33,40.08,357.01,94353.75,29.77,-771902848.00,427047072.00,234.33,70.54,-5.78,-41.78,176.03,6,-2.82,6.33,40.08,-8.94,-231.50,-50.31,-4.56,-23.50,17.75,-0.11,-0.07,-0.67,-0.73,85.33,2.67,164.77,0.00,0.00,0.00,-45.00,1,1,3,0
3111.00,Coasting,68.80,-4.44,373.46,-4.48,-4.48,-4.48,0.00,6.07,39.96,373.49,94168.11,29.77,-771902848.00,427047072.00,234.33,70.54,-5.78,-41.78,176.03,6,-3.28,6.07,39.96,-10.12,-236.19,-50.75,5.00,-23.69,17.25,-0.23,-0.15,-0.65,-0.71,83.63,4.55,148.59,0.00,0.00,0.00,-45.00,1,1,3,0
3111.01,Coasting,68.82,-4.47,375.88,-4.44,-4.44,-4.44,0.00,5.30,39.88,388.66,94168.11,29.77,-771902848.00,427047072.00,234.33,70.54,-5.78,-41.78,176.03,6,-3.50,5.30,39.88,-9.69,-236.38,-51.25,5.00,-23.69,17.25,-0.24,-0.16,-0.64,-0.71,83.34,4.78,146.25,0.00,0.00,0.00,-45.00,1,1,3,0
3111.02,Coasting,68.83,-4.49,378.23,-4.41,-4.41,-4.41,0.00,5.36,39.87,388.66,93997.45,29.74,-771902848.00,427047072.00,234.33,70.54,-5.78,-41.78,176.03,6,-3.53,5.36,39.87,-9.44,-236.56,-51.56,5.00,-23.69,17.25,-0.26,-0.17,-0.64,-0.70,83.06,5.01,143.91,0.00,0.00,0.00,-45.00,1,1,3,0
3111.03,Coasting,68.84,-4.51,380.72,-4.39,-4.39,-4.39,0.00,5.49,39.88,388.66,93997.45,29.74,-771902848.00,427047072.00,234.33,70.54,-5.78,-41.78,176.03,6,-3.37,5.49,39.88,-8.81,-236.62,-51.56,5.00,-23.69,17.25,-0.28,-0.19,-0.63,-0.70,82.76,5.22,141.56,0.00,0.00,0.00,-45.00,1,1,3,0
3111.04,Coasting,68.85,-4.53,383.13,-4.36,-4.36,-4.36,0.00,4.91,39.84,388.66,93997.45,29.74,-771902848.00,427047072.00,234.33,70.54,-5.78,-41.78,176.03,6,-3.43,4.91,39.84,-8.81,-236.62,-51.56,10.19,-23.38,15.38,-0.29,-0.20,-0.63,-0.69,82.46,5.41,139.21,0.00,0.00,0.00,-45.00,1,1,3,0
3111.05,Coasting,68.86,-4.55,385.25,-4.34,-4.34,-4.34,0.00,4.86,39.75,388.66,93997.45,29.74,-771902848.00,427047072.00,234.33,70.54,-5.78,-41.78,176.03,6,-3.94,4.86,39.75,-8.56,-237.31,-51.06,10.19,-23.38,15.38,-0.29,-0.20,-0.63,-0.69,82.46,5.41,139.21,0.00,0.00,0.00,-45.00,1,1,3,0
3111.05,Coasting,68.88,-4.57,387.10,-4.32,-4.32,-4.32,0.00,4.63,39.63,388.66,93997.45,29.74,-771902848.00,427047072.00,234.33,70.54,-5.78,-41.78,176.03,6,-4.53,4.63,39.63,-8.94,-237.88,-51.50,10.19,-23.38,15.38,-0.32,-0.22,-0.62,-0.68,81.82,5.77,134.49,0.00,0.00,0.00,-45.00,1,1,3,0
3111.07,Coasting,68.88,-4.59,389.76,-4.32,-4.32,-4.32,0.00,5.53,39.55,388.66,93997.45,29.74,-771902848.00,427047072.00,234.33,70.54,-5.78,-41.78,176.03,6,-5.08,5.53,39.55,-9.12,-238.38,-52.56,10.19,-23.38,15.38,-0.34,-0.23,-0.61,-0.68,81.49,5.95,132.12,0.00,0.00,0.00,-45.00,1,1,3,0
3111.08,Coasting,68.88,-4.60,392.62,-4.32,-4.32,-4.32,0.00,4.84,39.63,404.74,93816.83,29.67,-771902848.00,427047072.00,234.33,70.54,-5.78,-41.78,176.03,6,-4.40,4.84,39.63,-9.56,-238.44,-52.31,10.19,-23.38,15.38,-0.35,-0.24,-0.61,-0.67,81.15,6.10,129.75,0.00,0.00,0.00,-45.00,1,1,3,0
3111.09,Coasting,68.89,-4.62,395.17,-4.31,-4.31,-4.31,0.00,5.24,39.59,404.74,93816.83,29.67,-771902848.00,427047072.00,234.33,70.54,-5.78,-41.78,176.03,6,-4.60,5.24,39.59,-9.56,-238.44,-52.31,10.19,-23.38,15.38,-0.37,-0.25,-0.60,-0.67,80.81,6.24,127.37,0.00,0.00,0.00,-45.00,1,1,3,0
3111.10,Coasting,68.90,-4.63,397.44,-4.29,-4.29,-4.29,0.00,4.94,39.27,404.74,93816.83,29.67,-771902848.00,427047072.00,234.33,70.54,-5.78,-41.78,176.03,6,-3.85,4.94,39.27,-8.94,-238.56,-52.62,14.25,-23.38,13.06,-0.37,-0.25,-0.60,-0.67,80.81,6.24,127.37,0.00,0.00,0.00,-45.00,1,1,3,0
3111.10,Coasting,68.91,-4.65,399.41,-4.27,-4.27,-4.27,0.00,5.27,39.32,404.74,93816.83,29.67,-771902848.00,427047072.00,234.33,70.54,-5.78,-41.78,176.03,6,-5.15,5.27,39.32,-8.12,-239.38,-52.12,14.25,-23.38,13.06,-0.40,-0.27,-0.58,-0.65,80.11,6.47,122.60,0.00,0.00,0.00,-45.00,1,1,3,0
3111.12,Coasting,68.91,-4.66,402.22,-4.28,-4.28,-4.28,0.00,4.76,39.43,404.74,93816.83,29.67,-771902848.00,427047072.00,234.33,70.54,-5.78,-41.78,176.03,6,-5.20,4.76,39.43,-9.19,-239.81,-52.94,14.25,-23.38,13.06,-0.41,-0.28,-0.58,-0.65,79.75,6.57,120.21,0.00,0.00,0.00,-45.00,1,1,3,0
3111.13,Coasting,68.91,-4.67,404.73,-4.29,-4.29,-4.29,0.00,4.83,39.28,404.74,93816.83,29.67,-771902848.00,427047072.00,234.33,70.54,-5.78,-41.78,176.03,6,-5.76,4.83,39.28,-9.69,-240.56,-53.25,14.25,-23.38,13.06,-0.43,-0.29,-0.57,-0.64,79.38,6.66,117.81,0.00,0.00,0.00,-45.00,1,1,3,0
3111.14,Coasting,68.91,-4.68,407.62,-4.30,-4.30,-4.30,0.00,5.15,39.40,420.15,93816.83,29.67,-771902848.00,427047072.00,234.33,70.54,-5.78,-41.78,176.03,6,-5.12,5.15,39.40,-9.69,-240.56,-53.25,14.25,-23.38,13.06,-0.44,-0.30,-0.56,-0.63,79.01,6.73,115.40,0.00,0.00,0.00,-45.00,1,1,3,0
3111.15,Coasting,68.92,-4.69,409.76,-4.29,-4.29,-4.29,0.00,4.80,38.12,420.31,93642.19,29.66,-771902848.00,427047072.00,234.33,70.54,-5.78,-41.78,176.03,6,-4.97,4.80,38.12,-9.44,-241.25,-53.06,18.06,-22.88,8.75,-0.44,-0.30,-0.56,-0.63,79.01,6.73,115.40,0.00,0.00,0.00,-45.00,1,1,3,0
3111.16,Coasting,68.93,-4.70,412.07,-4.28,-4.28,-4.28,0.00,4.98,38.51,420.31,93642.19,29.66,-771902848.00,427047072.00,234.33,70.54,-5.78,-41.78,176.03,6,-4.45,4.98,38.51,-10.00,-241.56,-53.44,18.06,-22.88,8.75,-0.47,-0.32,-0.54,-0.62,78.25,6.81,110.58,0.00,0.00,0.00,-45.00,1,1,3,0
3111.17,Coasting,68.93,-4.71,414.77,-4.29,-4.29,-4.29,0.00,5.41,37.77,420.31,93642.19,29.66,-771902848.00,427047072.00,234.33,70.54,-5.78,-41.78,176.03,6,-6.01,5.41,37.77,-9.44,-242.06,-53.44,18.06,-22.88,8.75,-0.49,-0.33,-0.54,-0.61,77.87,6.84,108.16,0.00,0.00,0.00,-45.00,1,1,3,0
3111.18,Coasting,68.92,-4.72,417.39,-4.29,-4.29,-4.29,0.00,5.80,37.86,420.31,93642.19,29.66,-771902848.00,427047072.00,234.33,70.54,-5.78,-41.78,176.03,6,-4.52,5.80,37.86,-9.44,-242.81,-54.12,18.06,-22.88,8.75,-0.50,-0.34,-0.53,-0.60,77.49,6.85,105.73,0.00,0.00,0.00,-45.00,1,1,3,0
