# Time (s),Altitude (m),Vertical velocity (m/s),Vertical acceleration (m/s²),Total velocity (m/s),Total acceleration (m/s²),Position East of launch (m),Position North of launch (m),Lateral distance (m),Lateral direction (°),Lateral velocity (m/s),Lateral acceleration (m/s²),Latitude (°),Longitude (°),Gravitational acceleration (m/s²),Angle of attack (°),Roll rate (r/s),Pitch rate (r/s),Yaw rate (r/s),Mass (g),Motor mass (g),Longitudinal moment of inertia (kg·m²),Rotational moment of inertia (kg·m²),CP location (cm),CG location (cm),Stability margin calibers (​),Mach number (​),Reynolds number (​),Thrust (N),Drag force (N),Drag coefficient (​),Axial drag coefficient (​),Friction drag coefficient (​),Pressure drag coefficient (​),Base drag coefficient (​),Normal force coefficient (​),Pitch moment coefficient (​),Yaw moment coefficient (​),Side force coefficient (​),Roll moment coefficient (​),Roll forcing coefficient (​),Roll damping coefficient (​),Pitch damping coefficient (​),Coriolis acceleration (m/s²),Reference length (cm),Reference area (cm²),Vertical orientation (zenith) (°),Lateral orientation (azimuth) (°),Wind velocity (m/s),Air temperature (°C),Air pressure (mbar),Speed of sound (m/s),Simulation time step (s),Computation time (s)
0.01,-3.825e-4,-0.077,-7.651,0.077,7.651,0,0,0,0,0,0,28.61,-80.6,9.792,92.128,0,0,0,71.253,23.094,0.001,1.026e-5,NaN,25.98,NaN,0.006,5.926e4,0.153,-1.393e-7,0.866,-1.092e-4,0.673,0.073,0.12,NaN,NaN,NaN,NaN,NaN,NaN,NaN,NaN,9.796e-6,2.5,4.909,90,0,2.059,15,1013.25,340.389,0.01,0.015
0.02,-1.684e-4,-0.034,-3.367,0.034,3.367,0,0,0,0,0,0,28.61,-80.6,9.792,90.929,0,0,0,71.247,23.088,0.001,1.026e-5,NaN,25.979,NaN,0.006,5.976e4,0.458,-1.19e-8,0.865,-9.17e-6,0.672,0.073,0.12,NaN,NaN,NaN,NaN,NaN,NaN,NaN,NaN,4.312e-6,2.5,4.909,90,0,2.078,15,1013.25,340.389,0.01,0.021
0.03,4.58e-5,0.009,0.916,0.009,0.916,0,0,0,0,0,0,28.61,-80.6,9.792,89.75,0,0,0,71.242,23.083,0.001,1.026e-5,NaN,25.978,NaN,0.006,6.028e4,0.763,0,0.863,1.806e-7,0.67,0.073,0.12,NaN,NaN,NaN,NaN,NaN,NaN,NaN,NaN,1.173e-6,2.5,4.909,90,0,2.096,15,1013.25,340.389,0.01,0.024
0.04,4.916e-4,0.08,7.089,0.08,7.089,0,0,0,0,0,0,28.61,-80.6,9.792,87.833,0,0,0,71.209,23.05,0.001,1.026e-5,NaN,25.973,NaN,0.006,6.086e4,1.202,1.541e-7,0.861,1.145e-4,0.668,0.073,0.12,NaN,NaN,NaN,NaN,NaN,NaN,NaN,NaN,1.024e-5,2.5,4.909,90,0,2.115,15,1013.25,340.389,0.01,0.025
0.05,0.002,0.24,16.011,0.24,16.011,0,0,0,0,0,0,28.61,-80.6,9.792,83.58,0,0,0,71.174,23.015,0.001,1.025e-5,NaN,25.968,NaN,0.006,6.174e4,1.836,3.93e-6,0.858,0.003,0.666,0.073,0.12,NaN,NaN,NaN,NaN,NaN,NaN,NaN,NaN,3.073e-5,2.5,4.909,90,0,2.133,15,1013.25,340.389,0.01,0.026
0.06,0.006,0.49,24.964,0.49,24.964,0,0,0,0,0,0,28.61,-80.6,9.792,76.941,0,0,0,71.139,22.98,0.001,1.025e-5,NaN,25.962,NaN,0.006,6.231e4,2.473,3.117e-5,0.857,0.022,0.664,0.073,0.12,NaN,NaN,NaN,NaN,NaN,NaN,NaN,NaN,6.269e-5,2.5,4.909,90,0,2.111,15,1013.249,340.389,0.01,0.027
0.07,0.012,0.829,33.926,0.829,33.926,0,0,0,0,0,0,28.61,-80.6,9.792,68.353,0,0,0,71.103,22.944,0.001,1.025e-5,NaN,25.956,NaN,0.007,6.461e4,3.109,1.36e-4,0.85,0.09,0.658,0.072,0.12,NaN,NaN,NaN,NaN,NaN,NaN,NaN,NaN,1.061e-4,2.5,4.909,90,0,2.088,15,1013.249,340.389,0.01,0.028
0.08,0.023,1.258,42.894,1.258,42.894,0,0,0,0,0,0,28.61,-80.6,9.792,58.666,0,0,0,71.068,22.909,0.001,1.025e-5,NaN,25.951,NaN,0.007,6.955e4,3.745,4.1e-4,0.836,0.233,0.645,0.072,0.12,NaN,NaN,NaN,NaN,NaN,NaN,NaN,NaN,1.61e-4,2.5,4.909,90,0,2.066,15,1013.247,340.389,0.01,0.029
0.09,0.038,1.776,51.867,1.776,51.867,0,0,0,0,0,0,28.61,-80.6,9.792,48.997,0,0,0,71.033,22.873,0.001,1.025e-5,NaN,25.945,NaN,0.008,7.785e4,4.381,9.591e-4,0.816,0.435,0.625,0.071,0.12,NaN,NaN,NaN,NaN,NaN,NaN,NaN,NaN,2.274e-4,2.5,4.909,90,0,2.043,15,1013.246,340.389,0.01,0.031
0.1,0.059,2.405,62.922,2.405,62.922,0,0,0,0,0,0,28.61,-80.6,9.792,40.034,0,0,0,70.953,22.794,0.001,1.024e-5,NaN,25.932,NaN,0.009,9.033e4,5.161,0.002,0.791,0.642,0.601,0.07,0.12,NaN,NaN,NaN,NaN,NaN,NaN,NaN,NaN,3.079e-4,2.5,4.909,90,0,2.02,15,1013.243,340.389,0.01,0.032
0.11,0.087,3.187,78.209,3.187,78.209,0,0,0,0,0,0,28.61,-80.6,9.792,32.932,0,0,0,70.863,22.704,0.001,1.024e-5,NaN,25.918,NaN,0.011,1.092e5,6.239,0.003,0.761,0.783,0.573,0.069,0.12,NaN,NaN,NaN,NaN,NaN,NaN,NaN,NaN,4.08e-4,2.5,4.909,90,0,2.064,14.999,1013.24,340.389,0.01,0.034
0.12,0.123,4.123,93.653,4.123,93.653,0,0,0,0,0,0,28.61,-80.6,9.792,27.078,0,0,0,70.772,22.613,0.001,1.024e-5,NaN,25.903,NaN,0.014,1.332e5,7.327,0.006,0.733,0.862,0.545,0.067,0.12,NaN,NaN,NaN,NaN,NaN,NaN,NaN,NaN,5.278e-4,2.5,4.909,90,0,2.108,14.999,1013.236,340.388,0.01,0.034
0.13,0.17,5.213,109.126,5.213,109.126,0,0,0,0,0,0,28.61,-80.6,9.792,22.424,0,0,0,70.682,22.523,0.001,1.023e-5,NaN,25.889,NaN,0.017,1.622e5,8.414,0.009,0.706,0.89,0.519,0.067,0.12,NaN,NaN,NaN,NaN,NaN,NaN,NaN,NaN,6.675e-4,2.5,4.909,90,0,2.151,14.999,1013.23,340.388,0.01,0.035
0.14,0.228,6.459,124.615,6.459,124.615,0,0,0,0,0,0,28.61,-80.6,9.792,18.77,0,0,0,70.586,22.427,0.001,1.023e-5,NaN,25.873,NaN,0.02,1.962e5,9.5,0.012,0.682,0.884,0.496,0.066,0.12,NaN,NaN,NaN,NaN,NaN,NaN,NaN,NaN,8.27e-4,2.5,4.909,90,0,2.195,14.999,1013.223,340.388,0.01,0.036
0.15,0.3,7.835,137.7,7.835,137.7,0,0,0,0,0,0,28.61,-80.6,9.792,15.946,0,0,0,70.439,22.28,0.001,1.022e-5,NaN,25.849,NaN,0.024,2.343e5,10.406,0.017,0.661,0.857,0.476,0.065,0.12,NaN,NaN,NaN,NaN,NaN,NaN,NaN,NaN,0.001,2.5,4.909,90,0,2.239,14.998,1013.215,340.388,0.01,0.037
0.16,0.386,9.324,149.082,9.324,149.082,0,0,0,0,0,0,28.61,-80.6,9.792,13.559,0,0,0,70.292,22.132,0.001,1.022e-5,NaN,25.825,NaN,0.028,2.758e5,11.19,0.023,0.643,0.816,0.458,0.065,0.12,NaN,NaN,NaN,NaN,NaN,NaN,NaN,NaN,0.001,2.5,4.909,90,0,2.249,14.997,1013.205,340.387,0.01,0.038
0.17,0.487,10.928,160.498,10.928,160.498,0,0,0,0,0,0,28.61,-80.6,9.792,11.678,0,0,0,70.144,21.985,0.001,1.021e-5,NaN,25.801,NaN,0.033,3.209e5,11.974,0.029,0.627,0.772,0.443,0.064,0.12,NaN,NaN,NaN,NaN,NaN,NaN,NaN,NaN,0.001,2.5,4.909,90,0,2.259,14.997,1013.193,340.387,0.01,0.039
0.179,0.594,12.496,171.447,12.496,171.447,0,0,0,0,0,0,28.61,-80.6,9.792,10.287,0,0,0,70.01,21.851,0.001,1.021e-5,NaN,25.779,NaN,0.037,3.652e5,12.724,0.036,0.617,0.739,0.433,0.064,0.12,NaN,NaN,NaN,NaN,NaN,NaN,NaN,NaN,0.002,2.5,4.909,90,0,2.268,14.996,1013.18,340.387,0.009,0.039
0.187,0.7,13.947,181.262,13.947,181.262,0,0,0,0,0,0,28.61,-80.6,9.792,9.268,0,0,0,69.892,21.733,0.001,1.02e-5,NaN,25.76,NaN,0.042,4.063e5,13.397,0.043,0.617,0.722,0.433,0.064,0.12,NaN,NaN,NaN,NaN,NaN,NaN,NaN,NaN,0.002,2.5,4.909,90,0,2.276,14.995,1013.168,340.386,0.008,0.04
0.194,0.805,15.299,188.705,15.299,188.705,0,0,0,0,0,0,28.61,-80.6,9.792,8.488,0,0,0,69.784,21.625,0.001,1.02e-5,NaN,25.742,NaN,0.045,4.448e5,13.903,0.051,0.617,0.71,0.433,0.064,0.12,NaN,NaN,NaN,NaN,NaN,NaN,NaN,NaN,0.002,2.5,4.909,90,0,2.283,14.995,1013.156,340.386,0.007,0.041
0.201,0.909,16.468,179.097,16.468,179.097,0,0,0,0,0,0,28.61,-80.6,9.792,7.913,0,0,0,69.682,21.523,0.001,1.019e-5,NaN,25.725,NaN,0.049,4.781e5,13.22,0.058,0.617,0.7,0.433,0.063,0.12,NaN,NaN,NaN,NaN,NaN,NaN,NaN,NaN,0.002,2.5,4.909,90,0,2.289,14.994,1013.143,340.385,0.007,0.041
0.207,1.012,17.47,165.171,17.47,165.171,0,0,0,0,0,0,28.61,-80.6,9.792,7.471,0,0,0,69.587,21.428,0.001,1.019e-5,NaN,25.709,NaN,0.052,5.067e5,12.24,0.065,0.617,0.693,0.433,0.063,0.12,NaN,NaN,NaN,NaN,NaN,NaN,NaN,NaN,0.002,2.5,4.909,90,0,2.291,14.993,1013.131,340.385,0.006,0.042
0.216,1.177,18.816,147.189,18.816,147.212,-1.071e-4,0,1.071e-4,-180,0.024,2.621,28.61,-80.6,9.792,6.866,0,0.011,-1.07e-6,69.474,21.315,0.001,1.018e-5,30.172,25.69,1.793,0.056,5.448e5,10.98,0.074,0.617,0.683,0.433,0.063,0.12,1.717,3.076,1.186e-4,0,0,0,0,9.691e-4,0.002,2.5,4.909,89.983,0.001,2.294,14.992,1013.112,340.384,0.009,0.043
0.225,1.355,19.946,123.053,19.946,123.08,-4.346e-4,0,4.346e-4,-180,0.048,2.582,28.61,-80.6,9.792,6.365,0,0.022,-1.459e-7,69.368,21.209,0.001,1.018e-5,30.279,25.673,1.843,0.059,5.772e5,9.297,0.082,0.617,0.675,0.433,0.063,0.12,1.572,2.892,4.428e-4,0,0,0,0,0.004,0.003,2.5,4.909,89.929,0.001,2.297,14.991,1013.091,340.384,0.009,0.044
0.234,1.532,20.815,100.093,20.816,100.124,-9.46e-4,0,9.46e-4,-180,0.07,2.471,28.61,-80.6,9.792,5.959,0,0.033,-1.418e-6,69.277,21.118,0.001,1.018e-5,30.367,25.657,1.884,0.062,6.02e5,7.7,0.088,0.617,0.669,0.433,0.063,0.12,1.457,2.736,-2.883e-4,0,0,0,0,0.008,0.003,2.5,4.909,89.843,0.002,2.3,14.99,1013.07,340.383,0.009,0.045
0.242,1.711,21.558,88.057,21.558,88.087,-0.002,0,0.002,180,0.09,2.291,28.61,-80.6,9.792,5.586,0,0.045,-1.472e-6,69.207,21.048,0.001,1.017e-5,30.451,25.646,1.922,0.064,6.232e5,6.865,0.094,0.617,0.664,0.433,0.063,0.121,1.353,2.586,-7.289e-5,0,0,0,0,0.013,0.003,2.5,4.909,89.724,0.002,2.303,14.989,1013.049,340.382,0.008,0.046
0.251,1.893,22.221,79.671,22.221,79.698,-0.002,0,0.002,180,0.108,2.052,28.61,-80.6,9.792,5.219,0,0.056,-8.298e-7,69.141,20.982,0.001,1.017e-5,30.534,25.635,1.96,0.066,6.421e5,6.283,0.099,0.617,0.659,0.433,0.063,0.121,1.252,2.434,-5.196e-5,0,0,0,0,0.019,0.003,2.5,4.909,89.574,0.002,2.305,14.988,1013.028,340.381,0.008,0.046
0.259,2.081,22.856,76.283,22.856,76.302,-0.003,0,0.003,180,0.124,1.702,28.61,-80.6,9.792,4.802,0,0.067,-3.452e-6,69.082,20.923,0.001,1.017e-5,30.631,25.625,2.003,0.067,6.601e5,6.048,0.103,0.617,0.653,0.433,0.063,0.121,1.14,2.257,3.82e-4,0,0,0,0,0.026,0.003,2.5,4.909,89.391,0.002,2.289,14.986,1013.006,340.381,0.008,0.048
0.267,2.277,23.488,74.461,23.488,74.472,-0.005,8.211e-9,0.005,180,0.137,1.266,28.61,-80.6,9.792,4.368,-6.098e-9,0.078,-5.018e-6,69.021,20.862,0.001,1.017e-5,30.735,25.614,2.048,0.069,6.781e5,5.922,0.108,0.617,0.647,0.433,0.063,0.121,1.025,2.065,-2.037e-4,0,0,0,0,0.034,0.003,2.5,4.909,89.17,0.002,2.274,14.985,1012.983,340.38,0.008,0.048
0.276,2.486,24.125,72.584,24.126,72.588,-0.006,1.601e-8,0.006,180,0.146,0.75,28.61,-80.6,9.792,3.91,0,0.088,-4.78e-6,68.959,20.8,0.001,1.016e-5,30.847,25.604,2.097,0.071,6.963e5,5.792,0.113,0.617,0.642,0.433,0.063,0.121,0.906,1.859,6.692e-5,0,0,0,0,0.041,0.003,2.5,4.909,88.908,0.002,2.257,14.984,1012.958,340.379,0.009,0.049
0.286,2.712,24.778,70.619,24.779,70.619,-0.007,2.941e-8,0.007,180,0.15,0.141,28.61,-80.6,9.792,3.417,0,0.099,-6.353e-6,68.893,20.734,0.001,1.016e-5,30.971,25.592,2.151,0.073,7.15e5,5.656,0.118,0.617,0.636,0.433,0.063,0.121,0.781,1.632,-6.863e-5,0,0,0,0,0.049,0.003,2.5,4.909,88.595,0.002,2.24,14.982,1012.932,340.378,0.009,0.05
0.295,2.963,25.463,68.578,25.463,68.581,-0.009,5.213e-8,0.009,180,0.148,0.584,28.61,-80.6,9.792,2.876,-1.183e-8,0.11,-8.388e-6,68.824,20.665,0.001,1.016e-5,31.111,25.581,2.212,0.075,7.345e5,5.516,0.124,0.617,0.631,0.433,0.063,0.121,0.648,1.376,6.093e-5,0,0,0,0,0.057,0.003,2.5,4.909,88.22,0.002,2.222,14.981,1012.902,340.377,0.01,0.05
0.307,3.253,26.216,67.189,26.216,67.205,-0.01,9.126e-8,0.01,179.999,0.137,1.458,28.61,-80.6,9.792,2.316,6.332e-9,0.12,-5.92e-6,68.753,20.594,0.001,1.016e-5,31.261,25.569,2.277,0.077,7.561e5,5.423,0.13,0.617,0.626,0.433,0.063,0.121,0.514,1.105,2.2e-4,0,0,0,0,0.064,0.003,2.5,4.909,87.756,0.002,2.227,14.979,1012.869,340.376,0.011,0.051
0.32,3.603,27.082,65.842,27.083,65.892,-0.012,1.608e-7,0.012,179.999,0.111,2.55,28.61,-80.6,9.792,1.691,3.797e-8,0.13,-5.775e-6,68.669,20.51,0.001,1.015e-5,31.434,25.554,2.352,0.08,7.811e5,5.334,0.138,0.617,0.622,0.433,0.063,0.121,0.369,0.796,3.28e-4,0,0,0,0,0.071,0.003,2.5,4.909,87.164,0.002,2.255,14.977,1012.827,340.375,0.013,0.052
0.337,4.076,28.181,64.126,28.181,64.256,-0.013,2.977e-7,0.013,179.999,0.055,4.075,28.61,-80.6,9.792,0.874,6.819e-8,0.138,-1.763e-5,68.56,20.401,0.001,1.015e-5,31.671,25.536,2.454,0.083,8.127e5,5.224,0.149,0.617,0.619,0.433,0.063,0.121,0.186,0.382,4.909e-4,0,0,0,0,0.074,0.004,2.5,4.909,86.335,0.002,2.291,14.974,1012.772,340.373,0.017,0.052
0.363,4.819,29.767,61.598,29.767,61.935,-0.013,6.314e-7,0.013,179.997,0.078,6.45,28.61,-80.6,9.792,0.329,-2.392e-8,-0.14,-5.397e-5,68.396,20.237,0.001,1.014e-5,31.835,25.508,2.531,0.088,8.585e5,5.068,0.165,0.617,0.617,0.433,0.063,0.121,0.069,0.242,3.179e-4,0,0,0,0,-0.068,0.004,2.5,4.909,85.039,0.002,2.328,14.969,1012.685,340.37,0.026,0.053
0.401,6.008,32.019,58.124,32.021,58.942,-0.005,1.653e-6,0.005,179.98,0.39,9.784,28.61,-80.6,9.792,1.807,2.133e-7,-0.114,-2.195e-5,68.171,20.012,0.001,1.013e-5,31.403,25.468,2.374,0.094,9.237e5,4.87,0.193,0.617,0.623,0.433,0.063,0.121,0.395,0.977,9.077e-5,0,0,0,0,-0.039,0.004,2.5,4.909,83.251,0.003,2.351,14.961,1012.545,340.365,0.038,0.053
0.411,6.32,32.562,56.324,32.566,57.309,-4.234e-4,2.046e-6,4.234e-4,179.723,0.488,10.583,28.61,-80.6,9.792,2.216,0,-0.1,-1.147e-5,68.115,19.956,0.001,1.013e-5,31.29,25.459,2.332,0.096,9.395e5,4.759,0.201,0.617,0.626,0.433,0.063,0.121,0.49,1.173,-3.985e-4,0,0,0,0,-0.029,0.004,2.5,4.909,82.88,0.003,2.306,14.959,1012.509,340.364,0.01,0.054
0.419,6.581,33.005,55.604,33.01,56.714,0.004,2.415e-6,0.004,0.036,0.574,11.166,28.61,-80.6,9.792,2.468,0,-0.089,-1.035e-5,68.07,19.911,0.001,1.013e-5,31.221,25.451,2.308,0.097,9.522e5,4.719,0.207,0.617,0.628,0.433,0.063,0.121,0.55,1.292,-2.75e-4,0,0,0,0,-0.022,0.004,2.5,4.909,82.609,0.002,2.269,14.957,1012.478,340.363,0.008,0.055
0.426,6.814,33.392,54.993,33.398,56.207,0.008,2.773e-6,0.008,0.02,0.654,11.617,28.61,-80.6,9.792,2.655,0,-0.077,-5.417e-6,68.029,19.87,0.001,1.013e-5,31.172,25.444,2.291,0.098,9.634e5,4.686,0.213,0.617,0.63,0.433,0.063,0.121,0.595,1.379,4.239e-5,0,0,0,0,-0.016,0.004,2.5,4.909,82.399,0.002,2.236,14.956,1012.451,340.362,0.007,0.055
0.432,7.03,33.742,54.45,33.75,55.75,0.013,3.129e-6,0.013,0.014,0.729,11.971,28.61,-80.6,9.792,2.794,7.366e-9,-0.065,-9.686e-6,67.992,19.833,0.001,1.012e-5,31.135,25.437,2.279,0.1,9.735e5,4.655,0.217,0.618,0.631,0.433,0.063,0.121,0.628,1.443,8.354e-5,0,0,0,0,-0.012,0.004,2.5,4.909,82.235,0.002,2.206,14.954,1012.425,340.361,0.006,0.056
0.438,7.234,34.067,53.954,34.076,55.326,0.017,3.484e-6,0.017,0.012,0.802,12.244,28.61,-80.6,9.792,2.896,0,-0.054,-5.917e-6,67.958,19.799,0.001,1.012e-5,31.108,25.431,2.271,0.1,9.829e5,4.627,0.222,0.618,0.632,0.433,0.063,0.121,0.653,1.491,2.191e-6,0,0,0,0,-0.008,0.004,2.5,4.909,82.106,0.002,2.178,14.953,1012.402,340.36,0.006,0.057
0.444,7.429,34.372,53.495,34.383,54.925,0.022,3.842e-6,0.022,0.01,0.872,12.449,28.61,-80.6,9.792,2.967,7.408e-9,-0.043,-1.064e-5,67.925,19.766,0.001,1.012e-5,31.089,25.426,2.265,0.101,9.918e5,4.601,0.226,0.618,0.633,0.433,0.063,0.121,0.671,1.524,-2.475e-4,0,0,0,0,-0.005,0.004,2.5,4.909,82.006,0.002,2.151,14.952,1012.379,340.36,0.006,0.057
0.449,7.619,34.663,53.066,34.676,54.54,0.027,4.204e-6,0.027,0.009,0.941,12.593,28.61,-80.6,9.792,3.012,6.669e-9,-0.031,-9.981e-6,67.894,19.735,0.001,1.012e-5,31.078,25.42,2.263,0.102,1e6,4.576,0.23,0.618,0.633,0.433,0.063,0.121,0.682,1.544,8.24e-5,0,0,0,0,-0.003,0.004,2.5,4.909,81.933,0.002,2.125,14.95,1012.356,340.359,0.005,0.058
0.455,7.804,34.943,52.669,34.958,54.162,0.032,4.571e-6,0.032,0.008,1.008,12.633,28.61,-80.6,9.792,2.996,0,-0.02,-6.074e-6,67.863,19.704,0.001,1.012e-5,31.082,25.415,2.267,0.103,1.008e6,4.551,0.234,0.618,0.633,0.433,0.063,0.121,0.678,1.537,-8.993e-5,0,0,0,0,-0.001,0.004,2.5,4.909,81.884,0.002,2.123,14.949,1012.335,340.358,0.005,0.064
0.46,7.988,35.218,52.29,35.234,53.79,0.038,4.949e-6,0.038,0.008,1.074,12.615,28.61,-80.6,9.792,2.956,5.156e-9,-0.009,-8.118e-6,67.833,19.674,0.001,1.012e-5,31.093,25.41,2.273,0.104,1.016e6,4.528,0.238,0.618,0.633,0.433,0.063,0.121,0.668,1.518,-9.949e-5,0,0,0,0,-1.989e-4,0.005,2.5,4.909,81.857,0.002,2.123,14.948,1012.313,340.357,0.005,0.067
0.465,8.173,35.49,51.923,35.508,53.417,0.043,5.339e-6,0.043,0.007,1.14,12.547,28.61,-80.6,9.792,2.896,0,0.002,-5.459e-6,67.803,19.644,0.001,1.012e-5,31.109,25.404,2.282,0.105,1.024e6,4.504,0.241,0.618,0.632,0.433,0.063,0.121,0.653,1.49,3.081e-4,0,0,0,0,1.112e-5,0.005,2.5,4.909,81.85,0.002,2.124,14.947,1012.291,340.357,0.005,0.068
0.47,8.36,35.76,51.566,35.781,53.042,0.049,5.745e-6,0.049,0.007,1.205,12.427,28.61,-80.6,9.792,2.816,0,0.013,-6.882e-6,67.773,19.614,0.001,1.012e-5,31.13,25.399,2.292,0.106,1.032e6,4.48,0.245,0.618,0.631,0.433,0.063,0.121,0.634,1.452,4.016e-4,0,0,0,0,4.186e-4,0.005,2.5,4.909,81.865,0.002,2.125,14.946,1012.27,340.356,0.005,0.069
0.476,8.55,36.032,51.218,36.054,52.663,0.056,6.168e-6,0.056,0.006,1.27,12.254,28.61,-80.6,9.792,2.716,0,0.024,-5.578e-6,67.743,19.584,0.001,1.011e-5,31.156,25.394,2.305,0.106,1.04e6,4.457,0.248,0.618,0.63,0.433,0.063,0.121,0.61,1.404,3.871e-5,0,0,0,0,0.001,0.005,2.5,4.909,81.901,0.002,2.125,14.944,1012.247,340.355,0.005,0.071
0.481,8.745,36.307,51.044,36.332,52.447,0.063,6.612e-6,0.063,0.006,1.336,12.051,28.61,-80.6,9.792,2.595,5.61e-9,0.035,-8.381e-6,67.714,19.555,0.001,1.011e-5,31.188,25.389,2.32,0.107,1.048e6,4.445,0.252,0.618,0.629,0.433,0.063,0.121,0.581,1.344,2.051e-4,0,0,0,0,0.003,0.005,2.5,4.909,81.958,0.001,2.126,14.943,1012.224,340.354,0.005,0.072
0.487,8.947,36.59,50.979,36.617,52.328,0.071,7.081e-6,0.071,0.006,1.402,11.802,28.61,-80.6,9.792,2.452,0,0.046,-8.146e-6,67.685,19.526,0.001,1.011e-5,31.227,25.383,2.337,0.108,1.056e6,4.439,0.255,0.618,0.628,0.433,0.063,0.122,0.546,1.272,-4.137e-4,0,0,0,0,0.005,0.005,2.5,4.909,82.04,0.001,2.126,14.942,1012.201,340.354,0.006,0.073
0.492,9.159,36.884,50.921,36.913,52.201,0.079,7.581e-6,0.079,0.006,1.469,11.488,28.61,-80.6,9.792,2.284,1.061e-8,0.057,-3.388e-6,67.654,19.495,0.001,1.011e-5,31.272,25.378,2.358,0.109,1.065e6,4.434,0.259,0.618,0.627,0.433,0.063,0.122,0.507,1.187,4.866e-4,0,0,0,0,0.007,0.005,2.5,4.909,82.147,0.001,2.127,14.94,1012.176,340.353,0.006,0.074
0.499,9.384,37.193,50.869,37.225,52.066,0.088,8.12e-6,0.088,0.005,1.538,11.098,28.61,-80.6,9.792,2.088,5.121e-9,0.068,-4.607e-6,67.621,19.462,0.001,1.011e-5,31.326,25.372,2.382,0.11,1.074e6,4.428,0.262,0.618,0.626,0.433,0.063,0.122,0.46,1.086,-3.359e-4,0,0,0,0,0.01,0.005,2.5,4.909,82.283,0.001,2.128,14.939,1012.149,340.352,0.006,0.075
0.505,9.628,37.524,50.825,37.559,51.917,0.098,8.711e-6,0.098,0.005,1.609,10.589,28.61,-80.6,9.792,1.837,0,0.078,-1.037e-5,67.587,19.428,0.001,1.011e-5,31.396,25.366,2.412,0.111,1.084e6,4.422,0.267,0.618,0.624,0.433,0.063,0.122,0.402,0.957,-1.051e-4,0,0,0,0,0.013,0.005,2.5,4.909,82.455,0.001,2.143,14.937,1012.121,340.351,0.007,0.076
0.512,9.903,37.894,50.786,37.931,51.75,0.11,9.384e-6,0.11,0.005,1.683,9.944,28.61,-80.6,9.792,1.53,1.88e-8,0.089,-3.857e-6,67.548,19.389,0.001,1.011e-5,31.483,25.359,2.449,0.112,1.095e6,4.415,0.271,0.618,0.622,0.433,0.063,0.122,0.332,0.797,3.366e-4,0,0,0,0,0.017,0.005,2.5,4.909,82.674,9.689e-4,2.164,14.936,1012.089,340.35,0.007,0.077
0.521,10.229,38.328,50.745,38.369,51.556,0.125,1.019e-5,0.125,0.005,1.765,9.111,28.61,-80.6,9.792,1.149,0,0.098,-5.012e-6,67.502,19.343,0.001,1.01e-5,31.593,25.351,2.497,0.113,1.107e6,4.408,0.277,0.618,0.62,0.433,0.063,0.122,0.247,0.596,4.2e-6,0,0,0,0,0.02,0.005,2.5,4.909,82.963,8.927e-4,2.188,14.934,1012.05,340.349,0.009,0.077
0.532,10.661,38.895,50.692,38.94,51.31,0.145,1.127e-5,0.145,0.004,1.86,7.938,28.61,-80.6,9.792,0.634,-5.536e-9,0.107,-1.083e-5,67.442,19.283,0.001,1.01e-5,31.745,25.341,2.562,0.115,1.124e6,4.398,0.284,0.618,0.619,0.433,0.063,0.122,0.134,0.32,-7.316e-5,0,0,0,0,0.023,0.005,2.5,4.909,83.378,8.232e-4,2.22,14.931,1012,340.347,0.011,0.078
0.549,11.322,39.744,50.593,39.793,50.96,0.178,1.292e-5,0.178,0.004,1.978,6.106,28.61,-80.6,9.792,0.133,9.701e-8,-0.11,-7.918e-5,67.353,19.194,0.001,1.01e-5,31.898,25.325,2.629,0.117,1.148e6,4.385,0.297,0.618,0.618,0.433,0.064,0.122,0.028,0.096,-1.987e-4,0,0,0,0,-0.024,0.005,2.5,4.909,84.041,8.299e-4,2.269,14.926,1011.922,340.344,0.017,0.079
0.574,12.338,41.011,50.324,41.065,50.465,0.229,1.546e-5,0.229,0.004,2.1,3.765,28.61,-80.6,9.792,0.937,2.133e-7,-0.095,-2.772e-5,67.219,19.06,0.001,1.009e-5,31.656,25.301,2.542,0.121,1.185e6,4.364,0.317,0.618,0.62,0.433,0.064,0.122,0.2,0.525,2.084e-4,0,0,0,0,-0.016,0.005,2.5,4.909,84.985,8.39e-4,2.189,14.92,1011.803,340.34,0.025,0.08
0.585,12.786,41.554,50.05,41.609,50.13,0.252,1.657e-5,0.252,0.004,2.136,2.828,28.61,-80.6,9.792,1.22,2.428e-8,-0.082,-1.58e-5,67.161,19.002,0.001,1.009e-5,31.573,25.291,2.513,0.123,1.2e6,4.347,0.326,0.618,0.621,0.433,0.064,0.122,0.263,0.672,-2.916e-4,0,0,0,0,-0.012,0.005,2.5,4.909,85.331,0.001,2.152,14.917,1011.75,340.339,0.011,0.081
0.593,13.136,41.973,49.885,42.028,49.935,0.27,1.744e-5,0.27,0.004,2.157,2.242,28.61,-80.6,9.792,1.382,-1.842e-8,-0.07,-1.109e-6,67.116,18.957,0.001,1.009e-5,31.527,25.283,2.498,0.124,1.212e6,4.337,0.332,0.618,0.622,0.433,0.064,0.122,0.299,0.754,3.834e-4,0,0,0,0,-0.009,0.005,2.5,4.909,85.561,0.001,2.123,14.915,1011.709,340.337,0.008,0.082
0.601,13.445,42.337,49.741,42.393,49.774,0.286,1.822e-5,0.286,0.004,2.172,1.814,28.61,-80.6,9.792,1.489,0,-0.058,-1.988e-6,67.077,18.918,0.001,1.009e-5,31.496,25.276,2.488,0.125,1.222e6,4.33,0.338,0.618,0.623,0.433,0.064,0.122,0.323,0.809,-3.595e-4,0,0,0,0,-0.006,0.005,2.5,4.909,85.73,0.002,2.099,14.913,1011.673,340.336,0.007,0.083
0.607,13.73,42.67,49.607,42.726,49.629,0.301,1.894e-5,0.301,0.004,2.182,1.461,28.61,-80.6,9.792,1.58,0,-0.047,-2.023e-6,67.041,18.882,0.001,1.009e-5,31.47,25.269,2.48,0.126,1.232e6,4.323,0.344,0.619,0.623,0.433,0.064,0.122,0.343,0.856,3.45e-4,0,0,0,0,-0.004,0.005,2.5,4.909,85.857,0.002,2.094,14.911,1011.64,340.335,0.007,0.084
0.614,13.998,42.979,49.479,43.035,49.494,0.314,1.962e-5,0.314,0.004,2.191,1.206,28.61,-80.6,9.792,1.636,0,-0.035,7.285e-7,67.008,18.849,0.001,1.008e-5,31.454,25.263,2.477,0.127,1.241e6,4.317,0.349,0.619,0.623,0.433,0.064,0.122,0.356,0.884,-4.019e-4,0,0,0,0,-0.002,0.006,2.5,4.909,85.949,0.002,2.089,14.909,1011.608,340.334,0.006,0.084
0.62,14.255,43.273,49.355,43.329,49.366,0.327,2.029e-5,0.327,0.004,2.197,1.035,28.61,-80.6,9.792,1.664,1.032e-8,-0.024,-8.323e-6,66.976,18.817,0.001,1.008e-5,31.447,25.257,2.476,0.128,1.249e6,4.311,0.354,0.619,0.624,0.433,0.064,0.122,0.363,0.899,-2.744e-4,0,0,0,0,-9.511e-4,0.006,2.5,4.909,86.013,0.002,2.084,14.907,1011.578,340.333,0.006,0.085
0.625,14.506,43.558,49.232,43.614,49.241,0.34,2.094e-5,0.34,0.004,2.203,0.938,28.61,-80.6,9.792,1.667,5.991e-9,-0.013,-2.42e-6,66.945,18.786,0.001,1.008e-5,31.446,25.252,2.478,0.129,1.257e6,4.305,0.359,0.619,0.624,0.433,0.064,0.122,0.363,0.901,2.955e-4,0,0,0,0,-2.685e-4,0.006,2.5,4.909,86.052,0.003,2.08,14.906,1011.549,340.332,0.006,0.086
0.631,14.754,43.838,49.109,43.893,49.117,0.353,2.16e-5,0.353,0.004,2.208,0.911,28.61,-80.6,9.792,1.648,7.918e-9,-0.002,-9.918e-6,66.915,18.756,0.001,1.008e-5,31.451,25.246,2.482,0.129,1.265e6,4.3,0.363,0.619,0.624,0.433,0.064,0.122,0.359,0.891,2.292e-4,0,0,0,0,-4.881e-6,0.006,2.5,4.909,86.067,0.003,2.076,14.904,1011.52,340.331,0.006,0.086
0.637,15.004,44.116,48.984,44.171,48.993,0.365,2.227e-5,0.365,0.003,2.213,0.953,28.61,-80.6,9.792,1.606,6.98e-9,0.009,-9.9e-6,66.885,18.726,0.001,1.008e-5,31.463,25.241,2.489,0.13,1.273e6,4.294,0.368,0.619,0.623,0.433,0.064,0.122,0.35,0.87,3.237e-4,0,0,0,0,1.367e-4,0.006,2.5,4.909,86.059,0.003,2.071,14.902,1011.49,340.33,0.006,0.087
0.642,15.258,44.396,48.855,44.452,48.866,0.378,2.296e-5,0.378,0.003,2.219,1.065,28.61,-80.6,9.792,1.543,6.004e-9,0.02,-9.574e-6,66.854,18.695,0.001,1.008e-5,31.481,25.235,2.498,0.131,1.281e6,4.288,0.372,0.619,0.623,0.433,0.064,0.122,0.335,0.837,-2.495e-4,0,0,0,0,6.414e-4,0.006,2.5,4.909,86.028,0.003,2.067,14.901,1011.46,340.329,0.006,0.087
0.648,15.521,44.684,48.72,44.739,48.736,0.391,2.369e-5,0.391,0.003,2.226,1.25,28.61,-80.6,9.792,1.456,9.83e-9,0.031,-1.187e-5,66.823,18.664,0.001,1.008e-5,31.506,25.23,2.511,0.132,1.289e6,4.283,0.377,0.619,0.623,0.433,0.064,0.122,0.315,0.791,3.487e-4,0,0,0,0,0.001,0.006,2.5,4.909,85.974,0.003,2.062,14.899,1011.43,340.328,0.006,0.088
0.654,15.796,44.983,48.576,45.038,48.599,0.405,2.447e-5,0.405,0.003,2.234,1.488,28.61,-80.6,9.792,1.357,9.625e-9,0.042,-1.163e-5,66.79,18.631,0.001,1.008e-5,31.535,25.224,2.524,0.133,1.298e6,4.277,0.381,0.619,0.622,0.433,0.064,0.122,0.293,0.738,-2.226e-4,0,0,0,0,0.003,0.006,2.5,4.909,85.892,0.004,2.069,14.897,1011.397,340.327,0.006,0.089
0.661,16.09,45.298,48.421,45.353,48.455,0.419,2.533e-5,0.419,0.003,2.245,1.803,28.61,-80.6,9.792,1.236,1.579e-8,0.053,-7.639e-6,66.755,18.596,0.001,1.007e-5,31.57,25.218,2.541,0.134,1.307e6,4.271,0.386,0.619,0.622,0.433,0.064,0.122,0.266,0.672,-1.551e-4,0,0,0,0,0.004,0.006,2.5,4.909,85.781,0.004,2.08,14.895,1011.363,340.326,0.007,0.09
0.668,16.41,45.637,48.248,45.693,48.3,0.435,2.628e-5,0.435,0.003,2.259,2.226,28.61,-80.6,9.792,1.081,0,0.063,-1.498e-5,66.718,18.559,0.001,1.007e-5,31.615,25.211,2.562,0.135,1.317e6,4.264,0.392,0.619,0.621,0.433,0.064,0.122,0.232,0.588,-4.199e-4,0,0,0,0,0.006,0.006,2.5,4.909,85.634,0.004,2.093,14.893,1011.325,340.324,0.007,0.09
0.676,16.773,46.02,48.277,46.076,48.359,0.453,2.74e-5,0.453,0.003,2.279,2.809,28.61,-80.6,9.792,0.883,6.948e-9,0.073,-1.258e-5,66.675,18.516,0.001,1.007e-5,31.673,25.203,2.588,0.136,1.328e6,4.273,0.398,0.619,0.62,0.433,0.064,0.122,0.188,0.479,-1.363e-4,0,0,0,0,0.008,0.006,2.5,4.909,85.439,0.004,2.107,14.891,1011.283,340.323,0.008,0.091
0.685,17.214,46.491,49.258,46.548,49.396,0.475,2.881e-5,0.475,0.003,2.31,3.695,28.61,-80.6,9.792,0.618,0,0.083,-9.989e-6,66.624,18.465,0.001,1.007e-5,31.753,25.194,2.624,0.137,1.341e6,4.347,0.406,0.619,0.62,0.433,0.064,0.122,0.131,0.333,-3.155e-4,0,0,0,0,0.01,0.006,2.5,4.909,85.169,0.004,2.123,14.888,1011.231,340.321,0.01,0.092
0.699,17.846,47.174,50.622,47.234,50.877,0.506,3.092e-5,0.506,0.003,2.37,5.082,28.61,-80.6,9.792,0.219,-2.286e-8,0.09,-8.323e-6,66.551,18.392,0.001,1.007e-5,31.875,25.181,2.678,0.139,1.361e6,4.452,0.417,0.619,0.619,0.433,0.064,0.123,0.046,0.111,3.375e-4,0,0,0,0,0.011,0.006,2.5,4.909,84.746,0.003,2.147,14.884,1011.157,340.319,0.013,0.099
0.719,18.81,48.184,49.596,48.248,50.092,0.556,3.428e-5,0.556,0.004,2.493,7.027,28.61,-80.6,9.792,0.401,8.493e-8,-0.087,-1.717e-5,66.443,18.284,0.001,1.006e-5,31.819,25.161,2.663,0.142,1.39e6,4.409,0.436,0.619,0.62,0.433,0.064,0.123,0.084,0.234,1.311e-4,0,0,0,0,-0.01,0.006,2.5,4.909,84.09,0.002,2.144,14.878,1011.044,340.315,0.02,0.101
0.736,19.647,48.977,45.888,49.048,46.616,0.6,3.726e-5,0.6,0.004,2.622,8.206,28.61,-80.6,9.792,0.841,1.461e-7,-0.07,-2.124e-5,66.352,18.193,0.001,1.006e-5,31.687,25.144,2.617,0.145,1.413e6,4.183,0.451,0.619,0.621,0.433,0.064,0.123,0.179,0.475,4.181e-4,0,0,0,0,-0.006,0.006,2.5,4.909,83.599,0.001,2.139,14.872,1010.946,340.312,0.017,0.105
0.745,20.06,49.365,46.032,49.439,46.876,0.622,3.875e-5,0.622,0.004,2.694,8.851,28.61,-80.6,9.792,1.003,0,-0.057,-1.532e-6,66.308,18.149,0.001,1.006e-5,31.639,25.136,2.601,0.146,1.424e6,4.203,0.459,0.62,0.621,0.432,0.064,0.123,0.215,0.562,1.879e-5,0,0,0,0,-0.004,0.006,2.5,4.909,83.407,0.001,2.137,14.87,1010.897,340.31,0.008,0.105
0.752,20.409,49.69,46.174,49.767,47.096,0.641,3.999e-5,0.641,0.004,2.758,9.272,28.61,-80.6,9.792,1.099,7.11e-9,-0.046,2.327e-6,66.271,18.112,0.001,1.005e-5,31.611,25.129,2.593,0.147,1.434e6,4.221,0.465,0.62,0.622,0.432,0.064,0.123,0.236,0.614,3.51e-4,0,0,0,0,-0.003,0.006,2.5,4.909,83.276,9.129e-4,2.135,14.867,1010.856,340.309,0.007,0.106
0.758,20.725,49.985,46.304,50.064,47.28,0.659,4.113e-5,0.659,0.004,2.818,9.557,28.61,-80.6,9.792,1.156,1.878e-8,-0.034,-3.232e-6,66.237,18.078,0.001,1.005e-5,31.595,25.123,2.589,0.148,1.442e6,4.236,0.471,0.62,0.622,0.432,0.064,0.123,0.248,0.644,-1.656e-4,0,0,0,0,-0.001,0.006,2.5,4.909,83.185,7.997e-4,2.134,14.865,1010.819,340.307,0.006,0.106
0.764,21.025,50.263,46.434,50.345,47.444,0.676,4.219e-5,0.676,0.004,2.876,9.74,28.61,-80.6,9.792,1.184,1.401e-8,-0.023,5.693e-7,66.206,18.047,0.001,1.005e-5,31.587,25.117,2.588,0.148,1.45e6,4.249,0.476,0.62,0.622,0.432,0.064,0.123,0.255,0.66,3.849e-4,0,0,0,0,-6.282e-4,0.006,2.5,4.909,83.124,7.522e-4,2.134,14.863,1010.784,340.306,0.006,0.107
0.77,21.316,50.532,46.568,50.617,47.595,0.693,4.322e-5,0.693,0.004,2.933,9.833,28.61,-80.6,9.792,1.187,1.642e-8,-0.012,-3.694e-6,66.175,18.016,0.001,1.005e-5,31.586,25.112,2.59,0.149,1.458e6,4.263,0.482,0.62,0.622,0.432,0.064,0.123,0.255,0.662,6.649e-5,0,0,0,0,-1.6e-4,0.006,2.5,4.909,83.088,6.915e-4,2.133,14.861,1010.75,340.305,0.006,0.108
0.776,21.605,50.798,46.71,50.886,47.736,0.71,4.423e-5,0.71,0.004,2.989,9.844,28.61,-80.6,9.792,1.167,1.459e-8,-4.416e-4,-1.347e-6,66.145,17.986,0.001,1.005e-5,31.592,25.106,2.594,0.15,1.466e6,4.275,0.487,0.62,0.622,0.432,0.064,0.123,0.251,0.651,2.155e-4,0,0,0,0,-2.317e-7,0.007,2.5,4.909,83.076,6.399e-4,2.132,14.86,1010.716,340.304,0.006,0.108
0.781,21.896,51.066,46.862,51.157,47.87,0.727,4.525e-5,0.727,0.004,3.045,9.773,28.61,-80.6,9.792,1.125,1.519e-8,0.011,1.989e-6,66.115,17.956,0.001,1.005e-5,31.605,25.101,2.602,0.151,1.474e6,4.288,0.492,0.62,0.622,0.432,0.064,0.123,0.242,0.629,-3.948e-4,0,0,0,0,1.309e-4,0.007,2.5,4.909,83.087,6.396e-4,2.132,14.858,1010.682,340.303,0.006,0.109
0.787,22.196,51.342,47.028,51.435,48.001,0.745,4.63e-5,0.745,0.004,3.102,9.616,28.61,-80.6,9.792,1.06,1.646e-8,0.021,1.026e-5,66.084,17.925,0.001,1.005e-5,31.624,25.095,2.612,0.152,1.482e6,4.301,0.497,0.62,0.622,0.432,0.064,0.123,0.227,0.592,4.656e-4,0,0,0,0,5.334e-4,0.007,2.5,4.909,83.12,7.616e-4,2.131,14.856,1010.647,340.301,0.006,0.109
0.793,22.512,51.632,47.211,51.729,48.131,0.764,4.739e-5,0.764,0.004,3.16,9.366,28.61,-80.6,9.792,0.97,1.534e-8,0.032,1.513e-5,66.052,17.893,0.001,1.005e-5,31.65,25.089,2.625,0.153,1.49e6,4.314,0.502,0.62,0.622,0.432,0.064,0.123,0.207,0.543,4.266e-4,0,0,0,0,0.001,0.007,2.5,4.909,83.18,9.897e-4,2.13,14.854,1010.61,340.3,0.006,0.11
0.8,22.856,51.947,47.416,52.046,48.264,0.785,4.858e-5,0.785,0.004,3.221,9.004,28.61,-80.6,9.792,0.85,0,0.043,5.719e-6,66.017,17.858,0.001,1.004e-5,31.686,25.082,2.641,0.153,1.499e6,4.329,0.508,0.62,0.621,0.432,0.065,0.123,0.181,0.476,-3.008e-4,0,0,0,0,0.002,0.007,2.5,4.909,83.269,0.001,2.13,14.851,1010.569,340.299,0.007,0.11
0.807,23.245,52.302,47.655,52.405,48.404,0.81,4.993e-5,0.81,0.004,3.287,8.485,28.61,-80.6,9.792,0.687,0,0.053,8.237e-6,65.977,17.818,0.001,1.004e-5,31.735,25.075,2.664,0.155,1.51e6,4.345,0.515,0.62,0.621,0.432,0.065,0.123,0.146,0.384,6.244e-5,0,0,0,0,0.003,0.007,2.5,4.909,83.398,0.002,2.132,14.849,1010.524,340.297,0.007,0.111
0.817,23.724,52.74,47.943,52.847,48.564,0.84,5.161e-5,0.84,0.004,3.361,7.736,28.61,-80.6,9.792,0.462,3.958e-8,0.062,2.379e-5,65.929,17.77,0.001,1.004e-5,31.803,25.066,2.695,0.156,1.522e6,4.363,0.523,0.62,0.621,0.432,0.065,0.123,0.097,0.258,4.718e-4,0,0,0,0,0.004,0.007,2.5,4.909,83.588,0.002,2.136,14.846,1010.468,340.295,0.009,0.112
0.83,24.434,53.386,48.336,53.498,48.771,0.885,5.416e-5,0.885,0.004,3.457,6.503,28.61,-80.6,9.792,0.11,-7.618e-8,0.069,8.645e-5,65.859,17.699,0.001,1.004e-5,31.911,25.053,2.743,0.158,1.541e6,4.388,0.536,0.62,0.62,0.432,0.065,0.123,0.023,0.058,3.554e-4,0,0,0,0,0.005,0.007,2.5,4.909,83.908,0.003,2.141,14.841,1010.384,340.293,0.013,0.112
0.85,25.516,54.367,48.879,54.484,49.1,0.956,5.829e-5,0.956,0.003,3.568,4.653,28.61,-80.6,9.792,0.386,-8.466e-8,-0.063,3.3e-5,65.753,17.594,0.001,1.003e-5,31.827,25.033,2.717,0.161,1.569e6,4.426,0.556,0.62,0.621,0.432,0.065,0.123,0.081,0.225,-8.481e-5,0,0,0,0,-0.004,0.007,2.5,4.909,84.395,0.004,2.149,14.834,1010.257,340.288,0.02,0.113
0.864,26.279,55.053,49.12,55.172,49.243,1.006,6.14e-5,1.006,0.003,3.624,3.483,28.61,-80.6,9.792,0.673,1.845e-8,-0.048,-9.736e-6,65.677,17.518,0.001,1.003e-5,31.74,25.019,2.688,0.163,1.589e6,4.445,0.571,0.621,0.621,0.432,0.065,0.123,0.143,0.386,-1.362e-6,0,0,0,0,-0.002,0.007,2.5,4.909,84.675,0.005,2.164,14.829,1010.168,340.285,0.014,0.113
0.872,26.727,55.451,48.996,55.571,49.085,1.036,6.333e-5,1.036,0.004,3.65,2.951,28.61,-80.6,9.792,0.79,0,-0.035,5.281e-6,65.634,17.475,0.001,1.003e-5,31.705,25.011,2.678,0.164,1.6e6,4.44,0.58,0.621,0.622,0.432,0.065,0.123,0.168,0.451,3.577e-4,0,0,0,0,-0.001,0.007,2.5,4.909,84.797,0.005,2.172,14.826,1010.115,340.284,0.008,0.114
0.879,27.109,55.787,48.893,55.907,48.964,1.061,6.505e-5,1.061,0.004,3.669,2.633,28.61,-80.6,9.792,0.854,1.391e-8,-0.024,-1.25e-5,65.597,17.438,0.001,1.003e-5,31.686,25.004,2.673,0.165,1.61e6,4.437,0.587,0.621,0.622,0.432,0.065,0.124,0.182,0.487,3.615e-4,0,0,0,0,-5.512e-4,0.007,2.5,4.909,84.87,0.006,2.179,14.824,1010.071,340.282,0.007,0.114
0.885,27.461,56.094,48.792,56.215,48.854,1.084,6.668e-5,1.084,0.004,3.685,2.454,28.61,-80.6,9.792,0.885,1.596e-8,-0.012,-1.057e-5,65.563,17.404,0.001,1.003e-5,31.677,24.998,2.672,0.166,1.619e6,4.434,0.594,0.621,0.622,0.432,0.065,0.124,0.189,0.504,4.793e-4,0,0,0,0,-1.459e-4,0.007,2.5,4.909,84.91,0.007,2.185,14.822,1010.029,340.281,0.006,0.115
0.891,27.799,56.386,48.689,56.507,48.747,1.106,6.831e-5,1.106,0.004,3.7,2.386,28.61,-80.6,9.792,0.889,1.579e-8,-0.001,-1.662e-5,65.53,17.371,0.001,1.002e-5,31.676,24.992,2.674,0.167,1.627e6,4.431,0.6,0.621,0.622,0.432,0.065,0.124,0.19,0.507,9.958e-5,0,0,0,0,-9.958e-7,0.007,2.5,4.909,84.925,0.007,2.191,14.819,1009.99,340.279,0.006,0.116
0.897,28.133,56.673,48.581,56.795,48.641,1.128,6.998e-5,1.128,0.004,3.714,2.419,28.61,-80.6,9.792,0.87,1.564e-8,0.01,-1.715e-5,65.499,17.34,0.001,1.002e-5,31.682,24.986,2.679,0.167,1.635e6,4.428,0.606,0.621,0.622,0.432,0.065,0.124,0.185,0.496,-4.977e-4,0,0,0,0,9.657e-5,0.007,2.5,4.909,84.915,0.007,2.197,14.817,1009.951,340.278,0.006,0.122
0.903,28.472,56.963,48.465,57.085,48.532,1.15,7.174e-5,1.15,0.004,3.729,2.559,28.61,-80.6,9.792,0.826,1.823e-8,0.021,-1.018e-5,65.466,17.307,0.001,1.002e-5,31.695,24.98,2.686,0.168,1.643e6,4.426,0.612,0.621,0.622,0.432,0.065,0.124,0.176,0.472,5.04e-5,0,0,0,0,4.152e-4,0.007,2.5,4.909,84.882,0.007,2.202,14.815,1009.911,340.277,0.006,0.122
0.909,28.827,57.264,48.337,57.386,48.418,1.174,7.364e-5,1.174,0.004,3.745,2.811,28.61,-80.6,9.792,0.756,1.722e-8,0.032,-1.44e-5,65.433,17.274,0.001,1.002e-5,31.716,24.973,2.697,0.169,1.652e6,4.423,0.618,0.621,0.622,0.432,0.065,0.124,0.161,0.432,-8.315e-5,0,0,0,0,9.395e-4,0.007,2.5,4.909,84.822,0.007,2.206,14.813,1009.869,340.275,0.006,0.123
0.916,29.213,57.588,48.189,57.711,48.295,1.199,7.579e-5,1.199,0.004,3.765,3.19,28.61,-80.6,9.792,0.657,2.086e-8,0.042,-1.554e-5,65.397,17.238,0.001,1.002e-5,31.746,24.967,2.712,0.17,1.661e6,4.42,0.625,0.621,0.622,0.432,0.065,0.124,0.139,0.375,-8.593e-5,0,0,0,0,0.002,0.007,2.5,4.909,84.733,0.007,2.21,14.81,1009.824,340.274,0.007,0.124
0.924,29.654,57.955,48.012,58.079,48.157,1.228,7.834e-5,1.228,0.004,3.792,3.739,28.61,-80.6,9.792,0.52,9.463e-9,0.052,-1.32e-5,65.356,17.197,0.001,1.002e-5,31.788,24.959,2.732,0.171,1.672e6,4.417,0.633,0.621,0.622,0.432,0.065,0.124,0.11,0.297,2.417e-4,0,0,0,0,0.002,0.007,2.5,4.909,84.602,0.007,2.214,14.807,1009.772,340.272,0.008,0.124
0.933,30.209,58.412,47.775,58.537,47.991,1.264,8.168e-5,1.264,0.004,3.831,4.556,28.61,-80.6,9.792,0.322,-1.101e-8,0.061,-3.998e-5,65.304,17.145,0.001,1.002e-5,31.848,24.949,2.76,0.173,1.685e6,4.413,0.642,0.621,0.621,0.432,0.065,0.124,0.067,0.183,2.191e-4,0,0,0,0,0.003,0.007,2.5,4.909,84.406,0.006,2.22,14.804,1009.707,340.27,0.01,0.125
0.948,31.051,59.093,47.396,59.222,47.764,1.319,8.698e-5,1.319,0.004,3.906,5.915,28.61,-80.6,9.792,0.003,6.613e-8,0.066,-0.003,65.227,17.068,0.001,1.001e-5,31.947,24.934,2.805,0.175,1.705e6,4.408,0.657,0.621,0.621,0.432,0.065,0.124,7.224e-4,-0.002,3.2e-4,0,0,0,0,0.004,0.008,2.5,4.909,84.072,0.005,2.229,14.798,1009.608,340.267,0.014,0.125
0.969,32.331,60.103,46.801,60.24,47.455,1.405,9.54e-5,1.405,0.004,4.056,7.857,28.61,-80.6,9.792,0.428,-1.011e-7,-0.054,1.9e-7,65.111,16.952,0.001,1.001e-5,31.816,24.913,2.762,0.178,1.734e6,4.4,0.681,0.622,0.622,0.432,0.065,0.124,0.09,0.251,7.365e-5,0,0,0,0,-0.002,0.008,2.5,4.909,83.592,0.003,2.221,14.79,1009.458,340.262,0.021,0.126
0.979,32.935,60.569,46.474,60.71,47.268,1.446,9.939e-5,1.446,0.004,4.139,8.627,28.61,-80.6,9.792,0.59,-1.731e-8,-0.041,2.397e-6,65.057,16.898,0.001,1.001e-5,31.768,24.902,2.746,0.179,1.747e6,4.393,0.692,0.622,0.622,0.432,0.065,0.124,0.125,0.344,-3.49e-4,0,0,0,0,-0.001,0.008,2.5,4.909,83.42,0.002,2.216,14.786,1009.387,340.259,0.01,0.126
0.987,33.39,60.916,46.275,61.061,47.141,1.477,1.024e-4,1.477,0.004,4.205,8.993,28.61,-80.6,9.792,0.661,2.079e-8,-0.029,-1.646e-5,65.017,16.858,0.001,1e-5,31.747,24.895,2.741,0.18,1.757e6,4.389,0.7,0.622,0.623,0.432,0.065,0.124,0.14,0.385,2.012e-4,0,0,0,0,-6.952e-4,0.008,2.5,4.909,83.325,0.001,2.212,14.783,1009.334,340.257,0.007,0.127
0.993,33.794,61.222,46.121,61.37,47.026,1.505,1.05e-4,1.505,0.004,4.265,9.181,28.61,-80.6,9.792,0.694,5.09e-9,-0.018,-8.72e-6,64.981,16.822,0.001,1e-5,31.737,24.888,2.74,0.181,1.766e6,4.386,0.707,0.622,0.623,0.432,0.066,0.124,0.147,0.404,2.552e-4,0,0,0,0,-2.517e-4,0.008,2.5,4.909,83.27,0.001,2.209,14.78,1009.287,340.256,0.007,0.127
0.999,34.177,61.51,45.993,61.661,46.912,1.532,1.075e-4,1.532,0.004,4.323,9.237,28.61,-80.6,9.792,0.698,9.223e-9,-0.006,-2.564e-5,64.947,16.788,0.001,1e-5,31.736,24.881,2.742,0.182,1.774e6,4.383,0.714,0.622,0.623,0.432,0.066,0.124,0.148,0.406,-2.377e-4,0,0,0,0,-3.21e-5,0.008,2.5,4.909,83.243,6.612e-4,2.206,14.778,1009.242,340.254,0.006,0.128
1.006,34.556,61.791,45.884,61.946,46.793,1.559,1.099e-4,1.559,0.004,4.379,9.179,28.61,-80.6,9.792,0.68,1.012e-8,0.005,-3.185e-5,64.914,16.755,0.001,1e-5,31.741,24.875,2.747,0.183,1.782e6,4.38,0.721,0.622,0.623,0.432,0.066,0.124,0.144,0.396,-4.231e-4,0,0,0,0,1.809e-5,0.008,2.5,4.909,83.241,2.013e-4,2.201,14.775,1009.197,340.253,0.006,0.128
1.012,34.942,62.077,45.789,62.235,46.666,1.586,1.123e-4,1.586,0.004,4.436,9.004,28.61,-80.6,9.792,0.637,1.482e-8,0.016,-1.762e-5,64.881,16.722,0.001,9.999e-6,31.754,24.869,2.754,0.183,1.791e6,4.377,0.727,0.622,0.623,0.432,0.066,0.124,0.135,0.372,4.61e-4,0,0,0,0,1.932e-4,0.008,2.5,4.909,83.264,-1.658e-4,2.196,14.773,1009.152,340.251,0.006,0.129
1.018,35.352,62.379,45.704,62.54,46.525,1.616,1.147e-4,1.616,0.004,4.494,8.699,28.61,-80.6,9.792,0.568,0,0.026,-2.635e-5,64.845,16.686,0.001,9.997e-6,31.775,24.862,2.765,0.184,1.799e6,4.374,0.734,0.622,0.623,0.432,0.066,0.124,0.12,0.332,-8.006e-5,0,0,0,0,5.408e-4,0.008,2.5,4.909,83.314,-4.59e-4,2.191,14.77,1009.104,340.25,0.007,0.129
1.026,35.808,62.711,45.628,62.877,46.364,1.649,1.174e-4,1.649,0.004,4.556,8.233,28.61,-80.6,9.792,0.468,0,0.036,-4.719e-5,64.806,16.647,0.001,9.996e-6,31.806,24.854,2.781,0.185,1.809e6,4.371,0.742,0.622,0.623,0.432,0.066,0.124,0.099,0.273,4.363e-4,0,0,0,0,0.001,0.008,2.5,4.909,83.397,-7.043e-4,2.185,14.767,1009.05,340.248,0.007,0.13
1.034,36.36,63.111,45.552,63.28,46.17,1.689,1.206e-4,1.689,0.004,4.625,7.53,28.61,-80.6,9.792,0.32,0,0.046,-7.446e-5,64.759,16.6,0.001,9.994e-6,31.851,24.845,2.802,0.187,1.82e6,4.368,0.751,0.622,0.622,0.432,0.066,0.125,0.067,0.187,-8.017e-5,0,0,0,0,0.002,0.008,2.5,4.909,83.528,-9.887e-4,2.179,14.764,1008.986,340.246,0.009,0.13
1.047,37.165,63.688,45.458,63.862,45.9,1.748,1.249e-4,1.748,0.004,4.713,6.354,28.61,-80.6,9.792,0.079,-3.904e-8,0.053,-2.879e-4,64.69,16.531,0.001,9.991e-6,31.926,24.832,2.838,0.188,1.837e6,4.363,0.765,0.622,0.622,0.432,0.066,0.125,0.016,0.044,4.39e-4,0,0,0,0,0.002,0.008,2.5,4.909,83.757,-0.001,2.169,14.758,1008.891,340.243,0.013,0.131
1.066,38.385,64.551,45.293,64.73,45.526,1.839,1.309e-4,1.839,0.004,4.816,4.592,28.61,-80.6,9.792,0.266,-8.928e-8,-0.047,-5.341e-5,64.588,16.429,0.001,9.987e-6,31.868,24.812,2.823,0.191,1.862e6,4.356,0.786,0.623,0.623,0.432,0.066,0.125,0.056,0.159,-4.496e-4,0,0,0,0,-0.002,0.008,2.5,4.909,84.109,-0.001,2.161,14.75,1008.748,340.238,0.019,0.131
1.08,39.263,65.163,45.169,65.345,45.309,1.904,1.349e-4,1.904,0.004,4.871,3.558,28.61,-80.6,9.792,0.455,1.112e-8,-0.032,-5.207e-5,64.516,16.357,0.001,9.984e-6,31.811,24.798,2.805,0.193,1.879e6,4.353,0.802,0.623,0.623,0.432,0.066,0.125,0.096,0.27,-2.064e-4,0,0,0,0,-7.332e-4,0.008,2.5,4.909,84.303,-9.034e-4,2.157,14.745,1008.645,340.234,0.014,0.132
1.088,39.794,65.53,45.099,65.712,45.21,1.944,1.372e-4,1.944,0.004,4.898,3.164,28.61,-80.6,9.792,0.521,1.232e-8,-0.02,-3.776e-5,64.472,16.313,0.001,9.982e-6,31.791,24.79,2.801,0.194,1.89e6,4.353,0.811,0.623,0.623,0.432,0.066,0.125,0.11,0.308,1.661e-4,0,0,0,0,-2.788e-4,0.008,2.5,4.909,84.379,-2.411e-4,2.155,14.741,1008.583,340.232,0.008,0.132
1.095,40.258,65.848,45.022,66.032,45.121,1.979,1.391e-4,1.979,0.004,4.919,2.996,28.61,-80.6,9.792,0.544,7.075e-9,-0.008,-2.958e-5,64.435,16.276,0.001,9.981e-6,31.784,24.782,2.801,0.195,1.899e6,4.353,0.819,0.623,0.623,0.432,0.066,0.125,0.115,0.322,-3.542e-4,0,0,0,0,-4.837e-5,0.008,2.5,4.909,84.414,4.056e-4,2.153,14.738,1008.528,340.23,0.007,0.133
1.102,40.701,66.15,44.936,66.334,45.035,2.012,1.409e-4,2.012,0.004,4.939,2.975,28.61,-80.6,9.792,0.541,0,0.003,-1.002e-5,64.399,16.24,0.001,9.979e-6,31.786,24.776,2.804,0.196,1.907e6,4.353,0.827,0.623,0.623,0.432,0.066,0.125,0.114,0.32,7.862e-5,0,0,0,0,5.712e-6,0.009,2.5,4.909,84.421,0.001,2.153,14.735,1008.476,340.229,0.007,0.133
1.108,41.144,66.45,44.841,66.635,44.946,2.045,1.427e-4,2.045,0.004,4.959,3.068,28.61,-80.6,9.792,0.517,9.983e-9,0.014,-8.37e-6,64.363,16.204,0.001,9.978e-6,31.793,24.769,2.81,0.196,1.916e6,4.353,0.834,0.623,0.623,0.432,0.066,0.125,0.109,0.307,-5.829e-6,0,0,0,0,1.328e-4,0.009,2.5,4.909,84.4,0.002,2.162,14.733,1008.425,340.227,0.007,0.134
1.115,41.605,66.76,44.73,66.945,44.853,2.079,1.446e-4,2.079,0.004,4.981,3.308,28.61,-80.6,9.792,0.467,-6.123e-9,0.025,-3.236e-5,64.326,16.167,0.001,9.976e-6,31.808,24.761,2.819,0.197,1.925e6,4.353,0.842,0.623,0.623,0.432,0.066,0.125,0.098,0.277,1.7e-4,0,0,0,0,4.126e-4,0.009,2.5,4.909,84.352,0.002,2.17,14.73,1008.37,340.225,0.007,0.134
1.123,42.112,67.098,44.594,67.285,44.749,2.117,1.466e-4,2.117,0.004,5.008,3.721,28.61,-80.6,9.792,0.385,5.608e-9,0.035,-2.988e-5,64.286,16.127,0.001,9.975e-6,31.833,24.753,2.832,0.198,1.935e6,4.353,0.85,0.623,0.623,0.432,0.066,0.125,0.081,0.229,7.786e-6,0,0,0,0,8.206e-4,0.009,2.5,4.909,84.271,0.003,2.179,14.726,1008.311,340.223,0.008,0.135
1.132,42.725,67.503,44.413,67.692,44.628,2.163,1.492e-4,2.163,0.004,5.045,4.382,28.61,-80.6,9.792,0.259,6.899e-9,0.044,-2.995e-5,64.237,16.078,0.001,9.973e-6,31.872,24.744,2.851,0.2,1.946e6,4.353,0.86,0.623,0.623,0.432,0.066,0.125,0.054,0.153,3.946e-5,0,0,0,0,0.001,0.009,2.5,4.909,84.14,0.003,2.19,14.722,1008.239,340.221,0.009,0.136
1.145,43.635,68.098,44.117,68.289,44.463,2.231,1.531e-4,2.231,0.004,5.111,5.54,28.61,-80.6,9.792,0.044,1.13e-7,0.05,-2.689e-4,64.166,16.007,0.001,9.97e-6,31.939,24.73,2.884,0.201,1.963e6,4.353,0.876,0.623,0.623,0.432,0.066,0.125,0.009,0.025,1.29e-4,0,0,0,0,0.002,0.009,2.5,4.909,83.907,0.004,2.206,14.716,1008.132,340.217,0.013,0.136
1.165,45.016,68.982,43.653,69.181,44.247,2.335,1.595e-4,2.335,0.004,5.241,7.223,28.61,-80.6,9.792,0.255,0,-0.042,-1.173e-5,64.058,15.899,0.001,9.965e-6,31.874,24.709,2.866,0.204,1.989e6,4.353,0.899,0.624,0.624,0.432,0.067,0.125,0.053,0.155,1.864e-4,0,0,0,0,-0.001,0.009,2.5,4.909,83.558,0.005,2.218,14.707,1007.97,340.212,0.02,0.137
1.177,45.848,69.505,43.389,69.709,44.124,2.399,1.637e-4,2.399,0.004,5.334,8.021,28.61,-80.6,9.792,0.389,5.813e-8,-0.029,-2.877e-5,63.994,15.835,0.001,9.963e-6,31.834,24.696,2.855,0.206,2.004e6,4.353,0.913,0.624,0.624,0.432,0.067,0.125,0.082,0.234,4.609e-4,0,0,0,0,-5.149e-4,0.009,2.5,4.909,83.403,0.006,2.223,14.702,1007.873,340.208,0.012,0.137
1.186,46.417,69.858,43.24,70.067,44.03,2.443,1.668e-4,2.443,0.004,5.401,8.301,28.61,-80.6,9.792,0.431,0,-0.017,4.697e-6,63.951,15.792,0.001,9.961e-6,31.821,24.688,2.853,0.207,2.014e6,4.353,0.923,0.624,0.624,0.432,0.067,0.126,0.091,0.26,-2.719e-4,0,0,0,0,-1.724e-4,0.009,2.5,4.909,83.337,0.006,2.226,14.698,1007.806,340.206,0.008,0.138
1.193,46.93,70.175,43.13,70.387,43.933,2.482,1.698e-4,2.482,0.004,5.462,8.362,28.61,-80.6,9.792,0.436,7.987e-9,-0.005,1.109e-5,63.912,15.753,0.001,9.959e-6,31.82,24.68,2.856,0.208,2.023e6,4.353,0.931,0.624,0.624,0.432,0.067,0.126,0.092,0.263,-5.972e-5,0,0,0,0,-1.742e-5,0.009,2.5,4.909,83.309,0.006,2.229,14.695,1007.746,340.204,0.007,0.138
1.2,47.435,70.484,43.044,70.7,43.828,2.522,1.729e-4,2.522,0.004,5.522,8.253,28.61,-80.6,9.792,0.413,1.329e-8,0.006,-1.318e-5,63.873,15.714,0.001,9.958e-6,31.827,24.672,2.862,0.208,2.032e6,4.353,0.94,0.624,0.624,0.432,0.067,0.126,0.087,0.249,1.527e-4,0,0,0,0,1.976e-5,0.009,2.5,4.909,83.309,0.006,2.232,14.692,1007.687,340.202,0.007,0.139
1.208,47.966,70.807,42.968,71.027,43.712,2.564,1.762e-4,2.564,0.004,5.583,8.031,28.61,-80.6,9.792,0.373,1.234e-8,0.016,-2.277e-5,63.833,15.674,0.001,9.956e-6,31.839,24.665,2.87,0.209,2.041e6,4.353,0.948,0.624,0.624,0.432,0.067,0.126,0.078,0.225,-2.042e-4,0,0,0,0,1.627e-4,0.009,2.5,4.909,83.339,0.005,2.219,14.688,1007.624,340.2,0.008,0.14
1.216,48.55,71.159,42.698,71.383,43.366,2.61,1.801e-4,2.61,0.004,5.647,7.586,28.61,-80.6,9.792,0.3,0,0.026,-3.034e-5,63.79,15.631,0.001,9.954e-6,31.862,24.656,2.882,0.21,2.051e6,4.34,0.958,0.624,0.624,0.431,0.067,0.126,0.063,0.181,-3.927e-4,0,0,0,0,4.227e-4,0.009,2.5,4.909,83.404,0.005,2.205,14.684,1007.556,340.198,0.008,0.14
1.226,49.274,71.579,41.431,71.808,41.975,2.667,1.849e-4,2.667,0.004,5.719,6.733,28.61,-80.6,9.792,0.18,0,0.035,-7.652e-6,63.738,15.579,0.001,9.952e-6,31.899,24.646,2.901,0.212,2.063e6,4.262,0.969,0.624,0.624,0.431,0.067,0.126,0.038,0.109,-2.089e-4,0,0,0,0,7.481e-4,0.009,2.5,4.909,83.518,0.004,2.187,14.68,1007.471,340.195,0.01,0.141
1.241,50.366,72.182,39.564,72.416,39.916,2.755,1.925e-4,2.755,0.004,5.809,5.288,28.61,-80.6,9.792,0.025,4.828e-8,-0.039,-6.743e-5,63.66,15.501,0.001,9.949e-6,31.947,24.63,2.927,0.213,2.08e6,4.146,0.985,0.624,0.624,0.431,0.067,0.126,0.005,0.016,2.211e-4,0,0,0,0,-9.097e-4,0.009,2.5,4.909,83.729,0.004,2.161,14.673,1007.343,340.191,0.015,0.141
1.264,52.022,73.067,38.76,73.306,38.921,2.889,2.042e-4,2.889,0.004,5.906,3.541,28.61,-80.6,9.792,0.291,-1.155e-8,-0.024,-3.931e-5,63.543,15.384,0.001,9.944e-6,31.866,24.607,2.903,0.216,2.106e6,4.102,1.01,0.625,0.625,0.431,0.067,0.126,0.061,0.178,-2.47e-4,0,0,0,0,-3.272e-4,0.009,2.5,4.909,84.006,0.006,2.169,14.662,1007.149,340.184,0.023,0.141
1.273,52.687,73.426,39.46,73.666,39.58,2.942,2.09e-4,2.942,0.004,5.936,3.075,28.61,-80.6,9.792,0.374,0,-0.012,5.982e-6,63.497,15.338,0.001,9.943e-6,31.841,24.598,2.897,0.217,2.116e6,4.151,1.02,0.625,0.625,0.431,0.067,0.126,0.079,0.229,-3.584e-5,0,0,0,0,-7.661e-5,0.009,2.5,4.909,84.065,0.007,2.184,14.658,1007.071,340.181,0.009,0.142
1.281,53.238,73.724,39.772,73.965,39.883,2.987,2.132e-4,2.987,0.004,5.959,2.977,28.61,-80.6,9.792,0.392,1.003e-8,-3.713e-5,-1.216e-5,63.459,15.3,0.001,9.941e-6,31.835,24.59,2.898,0.218,2.125e6,4.177,1.029,0.625,0.625,0.431,0.067,0.126,0.083,0.239,-1.149e-4,0,0,0,0,0,0.009,2.5,4.909,84.081,0.007,2.196,14.654,1007.006,340.179,0.007,0.142
1.288,53.763,74.009,40.023,74.25,40.14,3.029,2.173e-4,3.029,0.004,5.98,3.069,28.61,-80.6,9.792,0.379,6.884e-9,0.011,-5.109e-7,63.423,15.264,0.001,9.94e-6,31.839,24.583,2.903,0.219,2.133e6,4.2,1.037,0.625,0.625,0.431,0.067,0.126,0.08,0.232,-4.593e-4,0,0,0,0,6.776e-5,0.01,2.5,4.909,84.066,0.007,2.208,14.651,1006.945,340.177,0.007,0.143
1.295,54.302,74.302,40.248,74.544,40.386,3.073,2.216e-4,3.073,0.004,6.003,3.342,28.61,-80.6,9.792,0.338,6.847e-9,0.022,3.935e-6,63.386,15.227,9.995e-4,9.938e-6,31.852,24.575,2.911,0.22,2.141e6,4.222,1.045,0.625,0.625,0.431,0.067,0.126,0.071,0.206,3.667e-4,0,0,0,0,2.592e-4,0.01,2.5,4.909,84.023,0.007,2.22,14.647,1006.881,340.175,0.007,0.143
1.303,54.904,74.63,40.462,74.873,40.644,3.122,2.265e-4,3.122,0.004,6.032,3.845,28.61,-80.6,9.792,0.263,-2.488e-8,0.032,-3.205e-5,63.344,15.185,9.988e-4,9.936e-6,31.875,24.567,2.923,0.221,2.15e6,4.246,1.054,0.625,0.625,0.431,0.067,0.126,0.055,0.16,-1.82e-4,0,0,0,0,5.502e-4,0.01,2.5,4.909,83.945,0.007,2.23,14.643,1006.811,340.173,0.008,0.144
1.313,55.677,75.049,40.472,75.295,40.743,3.184,2.331e-4,3.184,0.004,6.077,4.694,28.61,-80.6,9.792,0.132,2.386e-8,0.04,1.585e-5,63.29,15.131,9.979e-4,9.934e-6,31.916,24.556,2.944,0.222,2.162e6,4.261,1.066,0.625,0.625,0.431,0.068,0.126,0.028,0.08,-2.639e-4,0,0,0,0,8.685e-4,0.01,2.5,4.909,83.809,0.006,2.237,14.638,1006.72,340.17,0.01,0.144
1.329,56.846,75.676,40.217,75.926,40.672,3.279,2.432e-4,3.279,0.004,6.161,6.069,28.61,-80.6,9.792,0.078,0,-0.041,1.87e-6,63.208,15.049,9.965e-4,9.931e-6,31.933,24.54,2.957,0.224,2.18e6,4.268,1.084,0.625,0.625,0.431,0.068,0.127,0.016,0.049,2.902e-4,0,0,0,0,-9.034e-4,0.01,2.5,4.909,83.575,0.004,2.248,14.631,1006.583,340.165,0.016,0.145
1.352,58.617,76.609,39.887,76.869,40.58,3.424,2.585e-4,3.424,0.004,6.323,7.464,28.61,-80.6,9.792,0.279,1.195e-7,-0.02,1.125e-5,63.085,14.926,9.945e-4,9.926e-6,31.872,24.515,2.943,0.227,2.207e6,4.28,1.112,0.626,0.626,0.431,0.068,0.127,0.059,0.172,-4.398e-4,0,0,0,0,-2.117e-4,0.01,2.5,4.909,83.303,0.004,2.26,14.619,1006.375,340.158,0.023,0.145
1.36,59.253,76.94,39.86,77.204,40.629,3.477,2.64e-4,3.477,0.004,6.387,7.867,28.61,-80.6,9.792,0.334,2.74e-8,-0.008,2.407e-5,63.042,14.883,9.937e-4,9.924e-6,31.855,24.506,2.94,0.228,2.217e6,4.289,1.122,0.626,0.626,0.431,0.068,0.127,0.07,0.207,7.724e-5,0,0,0,0,-3.695e-5,0.01,2.5,4.909,83.26,0.005,2.25,14.615,1006.301,340.156,0.008,0.146
1.368,59.83,77.238,39.823,77.507,40.591,3.525,2.69e-4,3.525,0.004,6.446,7.858,28.61,-80.6,9.792,0.329,1.621e-8,0.003,1.34e-5,63.002,14.843,9.931e-4,9.923e-6,31.857,24.498,2.944,0.229,2.225e6,4.293,1.131,0.626,0.626,0.431,0.068,0.127,0.069,0.204,-1.12e-4,0,0,0,0,3.784e-6,0.01,2.5,4.909,83.253,0.005,2.242,14.611,1006.233,340.153,0.007,0.146
1.375,60.412,77.538,39.808,77.81,40.536,3.574,2.741e-4,3.574,0.004,6.505,7.645,28.61,-80.6,9.792,0.295,2.151e-8,0.013,1.944e-5,62.963,14.803,9.924e-4,9.921e-6,31.867,24.49,2.951,0.229,2.234e6,4.298,1.14,0.626,0.626,0.431,0.068,0.127,0.062,0.183,-4.057e-5,0,0,0,0,9.099e-5,0.01,2.5,4.909,83.275,0.006,2.233,14.607,1006.165,340.151,0.008,0.147
1.384,61.06,77.87,39.813,78.147,40.459,3.628,2.8e-4,3.628,0.004,6.567,7.199,28.61,-80.6,9.792,0.229,0,0.023,3.796e-5,62.919,14.76,9.917e-4,9.919e-6,31.888,24.481,2.963,0.23,2.243e6,4.302,1.149,0.626,0.626,0.431,0.068,0.127,0.048,0.142,-9.591e-6,0,0,0,0,2.752e-4,0.01,2.5,4.909,83.331,0.007,2.224,14.603,1006.089,340.148,0.008,0.147
1.394,61.894,78.296,39.839,78.577,40.349,3.699,2.878e-4,3.699,0.004,6.64,6.398,28.61,-80.6,9.792,0.113,1.06e-8,0.032,1.191e-4,62.862,14.703,9.907e-4,9.917e-6,31.924,24.469,2.982,0.232,2.255e6,4.308,1.162,0.626,0.626,0.431,0.068,0.127,0.024,0.07,-5.35e-5,0,0,0,0,4.998e-4,0.01,2.5,4.909,83.439,0.008,2.212,14.598,1005.991,340.145,0.011,0.152
1.41,63.153,78.935,39.874,79.222,40.193,3.806,3.002e-4,3.806,0.005,6.731,5.055,28.61,-80.6,9.792,0.077,3.44e-8,-0.032,1.383e-4,62.778,14.619,9.893e-4,9.913e-6,31.936,24.452,2.993,0.234,2.274e6,4.315,1.181,0.626,0.626,0.431,0.068,0.127,0.016,0.049,-1.156e-4,0,0,0,0,-5.115e-4,0.01,2.5,4.909,83.632,0.008,2.195,14.59,1005.843,340.14,0.016,0.153
1.435,65.061,79.895,39.818,80.187,40.005,3.969,3.201e-4,3.969,0.005,6.832,3.858,28.61,-80.6,9.792,0.233,-3.417e-8,-0.011,9.495e-5,62.651,14.492,9.871e-4,9.908e-6,31.888,24.426,2.985,0.236,2.301e6,4.327,1.211,0.627,0.627,0.431,0.068,0.127,0.049,0.146,-1.178e-4,0,0,0,0,-5.406e-5,0.01,2.5,4.909,83.833,0.006,2.17,14.577,1005.619,340.133,0.024,0.153
1.443,65.761,80.244,39.861,80.537,40.023,4.029,3.277e-4,4.029,0.005,6.864,3.601,28.61,-80.6,9.792,0.265,-5.376e-9,5.98e-4,3.323e-5,62.605,14.446,9.864e-4,9.906e-6,31.878,24.417,2.985,0.237,2.311e6,4.336,1.221,0.627,0.627,0.431,0.068,0.127,0.056,0.166,1.426e-4,0,0,0,0,1.698e-7,0.01,2.5,4.909,83.848,0.005,2.161,14.573,1005.537,340.13,0.009,0.154
1.452,66.446,80.584,39.79,80.878,39.97,4.087,3.351e-4,4.087,0.005,6.895,3.794,28.61,-80.6,9.792,0.235,-1.815e-8,0.011,7.855e-6,62.56,14.401,9.856e-4,9.905e-6,31.888,24.407,2.992,0.238,2.32e6,4.341,1.232,0.627,0.627,0.431,0.068,0.127,0.049,0.147,-4.159e-4,0,0,0,0,5.985e-5,0.01,2.5,4.909,83.83,0.004,2.151,14.568,1005.457,340.127,0.009,0.154
1.461,67.214,80.962,39.677,81.258,39.906,4.153,3.434e-4,4.153,0.005,6.934,4.275,28.61,-80.6,9.792,0.166,0,0.021,7.321e-5,62.51,14.351,9.847e-4,9.903e-6,31.909,24.397,3.005,0.24,2.331e6,4.346,1.243,0.627,0.627,0.431,0.069,0.127,0.035,0.104,4.883e-4,0,0,0,0,2.037e-4,0.01,2.5,4.909,83.773,0.004,2.137,14.563,1005.367,340.124,0.01,0.154
1.475,68.296,81.49,39.473,81.79,39.816,4.246,3.55e-4,4.246,0.005,6.997,5.217,28.61,-80.6,9.792,0.037,6.37e-8,0.028,1.744e-4,62.439,14.28,9.835e-4,9.9e-6,31.95,24.382,3.027,0.241,2.346e6,4.353,1.26,0.627,0.627,0.431,0.069,0.128,0.008,0.023,1.82e-5,0,0,0,0,3.499e-4,0.01,2.5,4.909,83.652,0.003,2.118,14.556,1005.24,340.12,0.013,0.155
1.495,69.932,82.276,39.146,82.583,39.688,4.387,3.721e-4,4.387,0.005,7.116,6.534,28.61,-80.6,9.792,0.137,-3.491e-8,-0.02,8.805e-5,62.331,14.172,9.817e-4,9.895e-6,31.919,24.36,3.024,0.243,2.368e6,4.361,1.284,0.627,0.627,0.431,0.069,0.128,0.029,0.087,-3.25e-4,0,0,0,0,-1.885e-4,0.011,2.5,4.909,83.465,0.005,2.089,14.545,1005.048,340.113,0.02,0.155
1.509,71.084,82.822,38.989,83.136,39.641,4.487,3.842e-4,4.487,0.005,7.213,7.162,28.61,-80.6,9.792,0.217,2.864e-8,-0.007,3.239e-6,62.256,14.097,9.804e-4,9.892e-6,31.895,24.344,3.02,0.245,2.384e6,4.37,1.302,0.627,0.628,0.431,0.069,0.128,0.045,0.138,9.138e-6,0,0,0,0,-2.477e-5,0.011,2.5,4.909,83.392,0.008,2.058,14.538,1004.913,340.109,0.014,0.156
1.518,71.865,83.189,38.928,83.507,39.593,4.555,3.927e-4,4.555,0.005,7.282,7.227,28.61,-80.6,9.792,0.224,0,0.004,6.294e-5,62.205,14.046,9.795e-4,9.89e-6,31.893,24.334,3.024,0.246,2.394e6,4.376,1.314,0.628,0.628,0.431,0.069,0.128,0.047,0.142,1.52e-4,0,0,0,0,7.562e-6,0.011,2.5,4.909,83.388,0.009,2.032,14.533,1004.821,340.106,0.009,0.156
1.527,72.633,83.548,38.887,83.871,39.509,4.622,4.015e-4,4.622,0.005,7.347,6.979,28.61,-80.6,9.792,0.192,0,0.015,8.365e-5,62.156,13.997,9.787e-4,9.888e-6,31.903,24.323,3.032,0.247,2.404e6,4.381,1.325,0.628,0.628,0.431,0.069,0.128,0.04,0.122,-1.477e-5,0,0,0,0,9.422e-5,0.011,2.5,4.909,83.42,0.01,2.007,14.528,1004.731,340.103,0.009,0.157
1.538,73.52,83.96,38.868,84.287,39.392,4.7,4.121e-4,4.7,0.005,7.418,6.405,28.61,-80.6,9.792,0.12,-1.321e-8,0.024,8.293e-5,62.099,13.939,9.777e-4,9.886e-6,31.926,24.312,3.046,0.248,2.416e6,4.386,1.338,0.628,0.628,0.431,0.069,0.128,0.025,0.076,1.384e-5,0,0,0,0,2.453e-4,0.011,2.5,4.909,83.495,0.011,1.978,14.522,1004.627,340.099,0.011,0.157
1.554,74.859,84.579,38.854,84.912,39.205,4.819,4.291e-4,4.819,0.005,7.511,5.233,28.61,-80.6,9.792,0.024,3.615e-8,-0.028,3.834e-4,62.013,13.854,9.762e-4,9.882e-6,31.956,24.294,3.065,0.25,2.434e6,4.392,1.358,0.628,0.628,0.431,0.069,0.128,0.005,0.015,2.588e-4,0,0,0,0,-3.27e-4,0.011,2.5,4.909,83.65,0.01,1.943,14.513,1004.47,340.094,0.016,0.157
1.577,76.887,85.506,38.763,85.845,38.965,4.999,4.562e-4,4.999,0.005,7.615,3.957,28.61,-80.6,9.792,0.173,8.389e-9,-0.01,7.57e-5,61.884,13.725,9.74e-4,9.877e-6,31.91,24.267,3.058,0.253,2.46e6,4.402,1.388,0.628,0.628,0.431,0.069,0.128,0.036,0.111,-2.634e-4,0,0,0,0,-3.848e-5,0.011,2.5,4.909,83.83,0.006,1.933,14.5,1004.232,340.086,0.024,0.158
1.587,77.701,85.876,38.777,86.216,38.946,5.072,4.673e-4,5.072,0.005,7.649,3.629,28.61,-80.6,9.792,0.21,-1.639e-8,0.001,9.203e-6,61.833,13.674,9.731e-4,9.875e-6,31.899,24.256,3.057,0.254,2.47e6,4.411,1.401,0.628,0.629,0.431,0.069,0.128,0.044,0.135,3.416e-4,0,0,0,0,4.378e-7,0.011,2.5,4.909,83.846,0.005,1.929,14.495,1004.137,340.083,0.01,0.158
1.596,78.48,86.226,38.683,86.568,38.872,5.141,4.777e-4,5.141,0.005,7.683,3.831,28.61,-80.6,9.792,0.183,-2.616e-8,0.012,4.573e-5,61.784,13.625,9.722e-4,9.873e-6,31.908,24.246,3.065,0.255,2.48e6,4.415,1.412,0.629,0.629,0.431,0.069,0.128,0.038,0.118,1.976e-4,0,0,0,0,5.519e-5,0.011,2.5,4.909,83.825,0.004,1.925,14.49,1004.046,340.08,0.009,0.159
1.606,79.371,86.625,38.53,86.969,38.783,5.221,4.894e-4,5.221,0.005,7.725,4.423,28.61,-80.6,9.792,0.11,-2.451e-8,0.021,4.097e-5,61.729,13.57,9.712e-4,9.871e-6,31.931,24.234,3.079,0.256,2.492e6,4.42,1.425,0.629,0.629,0.431,0.07,0.129,0.023,0.07,-2.046e-4,0,0,0,0,1.757e-4,0.011,2.5,4.909,83.763,0.003,1.908,14.484,1003.941,340.076,0.01,0.159
1.622,80.715,87.219,38.25,87.568,38.659,5.341,5.066e-4,5.341,0.005,7.803,5.607,28.61,-80.6,9.792,0.033,1.865e-8,-0.024,1.489e-4,61.645,13.486,9.698e-4,9.868e-6,31.955,24.216,3.096,0.258,2.508e6,4.427,1.445,0.629,0.629,0.431,0.07,0.129,0.007,0.022,4.819e-4,0,0,0,0,-2.24e-4,0.011,2.5,4.909,83.631,0.005,1.872,14.475,1003.783,340.071,0.015,0.16
1.645,82.749,88.104,37.899,88.462,38.479,5.523,5.325e-4,5.523,0.006,7.952,6.658,28.61,-80.6,9.792,0.155,1.918e-8,-0.006,-5.476e-5,61.52,13.361,9.676e-4,9.863e-6,31.918,24.189,3.091,0.261,2.533e6,4.437,1.475,0.629,0.629,0.43,0.07,0.129,0.033,0.101,1.181e-4,0,0,0,0,-1.305e-5,0.011,2.5,4.909,83.492,0.007,1.818,14.462,1003.545,340.063,0.023,0.16
1.655,83.615,88.476,37.854,88.838,38.456,5.602,5.437e-4,5.602,0.006,8.019,6.782,28.61,-80.6,9.792,0.167,-2.053e-8,0.005,-3.744e-6,61.468,13.309,9.666e-4,9.86e-6,31.915,24.178,3.095,0.262,2.544e6,4.445,1.488,0.629,0.629,0.43,0.07,0.129,0.035,0.109,-2.769e-5,0,0,0,0,8.899e-6,0.011,2.5,4.909,83.489,0.007,1.816,14.457,1003.443,340.06,0.01,0.16
1.665,84.549,88.874,37.788,89.242,38.297,5.687,5.56e-4,5.687,0.006,8.088,6.225,28.61,-80.6,9.792,0.102,-3.054e-8,0.014,4.16e-5,61.41,13.251,9.656e-4,9.858e-6,31.935,24.166,3.108,0.263,2.555e6,4.448,1.501,0.629,0.629,0.43,0.07,0.129,0.021,0.066,1.64e-4,0,0,0,0,7.297e-5,0.011,2.5,4.909,83.526,0.007,1.837,14.45,1003.334,340.056,0.011,0.161
1.681,85.958,89.47,37.645,89.843,37.988,5.815,5.748e-4,5.815,0.006,8.177,5.096,28.61,-80.6,9.792,0.024,-5.435e-8,-0.017,1.335e-4,61.324,13.165,9.641e-4,9.855e-6,31.96,24.148,3.125,0.265,2.572e6,4.448,1.522,0.63,0.63,0.43,0.07,0.129,0.005,0.016,2.261e-4,0,0,0,0,-1.101e-4,0.012,2.5,4.909,83.622,0.007,1.869,14.441,1003.169,340.05,0.016,0.161
1.705,88.089,90.36,37.332,90.738,37.57,6.01,6.037e-4,6.01,0.006,8.281,4.222,28.61,-80.6,9.792,0.115,-4.086e-8,-6.165e-4,1.237e-4,61.195,13.036,9.618e-4,9.849e-6,31.932,24.12,3.125,0.267,2.598e6,4.448,1.553,0.63,0.63,0.43,0.07,0.129,0.024,0.076,-3.994e-4,0,0,0,0,-1.423e-7,0.012,2.5,4.909,83.714,0.004,1.898,14.427,1002.919,340.042,0.024,0.161
1.717,89.151,90.796,37.132,91.178,37.372,6.108,6.177e-4,6.108,0.006,8.329,4.228,28.61,-80.6,9.792,0.11,-2.133e-8,0.008,3.631e-5,61.131,12.972,9.607e-4,9.847e-6,31.934,24.106,3.131,0.269,2.61e6,4.448,1.568,0.63,0.63,0.43,0.07,0.129,0.023,0.072,1.357e-4,0,0,0,0,2.481e-5,0.012,2.5,4.909,83.699,0.002,1.873,14.421,1002.794,340.038,0.012,0.162
1.732,90.516,91.35,36.798,91.735,37.129,6.233,6.35e-4,6.233,0.006,8.397,4.945,28.61,-80.6,9.792,0.028,-6.777e-9,0.015,4.316e-4,61.049,12.89,9.592e-4,9.843e-6,31.96,24.088,3.149,0.27,2.625e6,4.448,1.588,0.63,0.63,0.43,0.071,0.13,0.006,0.018,-1.008e-4,0,0,0,0,8.289e-5,0.012,2.5,4.909,83.63,2.463e-4,1.842,14.412,1002.634,340.032,0.015,0.162
1.754,92.578,92.171,36.308,92.564,36.779,6.423,6.589e-4,6.423,0.006,8.522,5.868,28.61,-80.6,9.792,0.074,7.977e-8,-0.008,8.818e-5,60.927,12.768,9.57e-4,9.838e-6,31.946,24.062,3.154,0.273,2.649e6,4.448,1.617,0.631,0.631,0.43,0.071,0.13,0.015,0.049,-1.247e-4,0,0,0,0,-2.219e-5,0.012,2.5,4.909,83.519,0.003,1.804,14.398,1002.392,340.024,0.022,0.162
1.772,94.205,92.807,35.992,93.207,36.484,6.574,6.772e-4,6.574,0.006,8.629,5.969,28.61,-80.6,9.792,0.085,2.367e-8,0.002,9.591e-5,60.831,12.672,9.553e-4,9.835e-6,31.943,24.041,3.161,0.275,2.667e6,4.448,1.64,0.631,0.631,0.43,0.071,0.13,0.018,0.056,3.618e-4,0,0,0,0,1.401e-6,0.012,2.5,4.909,83.498,0.009,1.802,14.388,1002.201,340.018,0.018,0.163
1.789,95.819,93.429,35.756,93.835,36.163,6.724,6.964e-4,6.724,0.006,8.728,5.408,28.61,-80.6,9.792,0.029,6.536e-8,0.01,2.206e-4,60.737,12.578,9.536e-4,9.831e-6,31.961,24.02,3.176,0.277,2.684e6,4.448,1.662,0.631,0.631,0.43,0.071,0.13,0.006,0.019,1.323e-4,0,0,0,0,3.194e-5,0.012,2.5,4.909,83.542,0.011,1.801,14.377,1002.012,340.011,0.017,0.163
1.815,98.26,94.354,35.399,94.769,35.693,6.953,7.284e-4,6.953,0.006,8.854,4.575,28.61,-80.6,9.792,0.051,9.278e-8,-0.003,-1.114e-4,60.595,12.436,9.51e-4,9.825e-6,31.955,23.989,3.186,0.279,2.71e6,4.448,1.696,0.631,0.631,0.43,0.071,0.13,0.011,0.033,-3.176e-4,0,0,0,0,-3.218e-6,0.012,2.5,4.909,83.627,0.009,1.798,14.361,1001.726,340.002,0.026,0.163
1.837,100.343,94.873,24.021,95.292,24.242,7.149,7.566e-4,7.149,0.006,8.921,3.272,28.61,-80.6,9.792,0.053,-4.774e-8,0.006,8.381e-5,60.496,12.337,9.492e-4,9.821e-6,31.955,23.967,3.195,0.281,2.725e6,3.77,1.715,0.632,0.632,0.43,0.071,0.13,0.011,0.036,1.237e-4,0,0,0,0,1.136e-5,0.012,2.5,4.909,83.619,0.005,1.795,14.348,1001.481,339.994,0.022,0.164
1.86,102.522,94.468,-17.664,94.886,17.689,7.353,7.853e-4,7.353,0.006,8.894,0.943,28.61,-80.6,9.792,0.004,7.912e-8,0.01,5.365e-4,60.459,12.3,9.486e-4,9.82e-6,31.97,23.959,3.204,0.28,2.713e6,1.22,1.699,0.631,0.631,0.43,0.071,0.13,8.704e-4,0.003,-4.561e-4,0,0,0,0,3.095e-5,0.012,2.5,4.909,83.535,0.002,1.813,14.334,1001.226,339.985,0.023,0.164
