# Time (s),Altitude (m),Vertical velocity (m/s),Vertical acceleration (m/s²),Total velocity (m/s),Total acceleration (m/s²),Position East of launch (m),Position North of launch (m),Lateral distance (m),Lateral direction (°),Lateral velocity (m/s),Lateral acceleration (m/s²),Latitude (°),Longitude (°),Gravitational acceleration (m/s²),Angle of attack (°),Roll rate (r/s),Pitch rate (r/s),Yaw rate (r/s),Mass (g),Motor mass (g),Longitudinal moment of inertia (kg·m²),Rotational moment of inertia (kg·m²),CP location (cm),CG location (cm),Stability margin calibers (​),Mach number (​),Reynolds number (​),Thrust (N),Drag force (N),Drag coefficient (​),Axial drag coefficient (​),Friction drag coefficient (​),Pressure drag coefficient (​),Base drag coefficient (​),Normal force coefficient (​),Pitch moment coefficient (​),Yaw moment coefficient (​),Side force coefficient (​),Roll moment coefficient (​),Roll forcing coefficient (​),Roll damping coefficient (​),Pitch damping coefficient (​),Coriolis acceleration (m/s²),Reference length (cm),Reference area (cm²),Vertical orientation (zenith) (°),Lateral orientation (azimuth) (°),Wind velocity (m/s),Air temperature (°C),Air pressure (mbar),Speed of sound (m/s),Simulation time step (s),Computation time (s)
0.01,2.739e-4,0.055,5.48,0.055,5.511,2.879e-5,0,2.879e-5,0,0.006,0.576,32,-106,9.791,83.517,0,0,0,5.192e4,2.679e4,47.003,0.254,NaN,253.455,NaN,0.018,1.235e6,791.639,7.946e-4,0.587,0.002,0.465,0.001,0.12,NaN,NaN,NaN,NaN,NaN,NaN,NaN,NaN,6.828e-6,15.748,194.778,84,0,6.498,37.004,861.252,353.724,0.01,0.012
0.02,0.003,0.413,35.819,0.415,36.016,2.746e-4,0,2.746e-4,0,0.043,3.765,32,-106,9.791,80.339,0,0,0,5.191e4,2.677e4,46.996,0.254,NaN,253.44,NaN,0.018,1.228e6,2374.897,0.003,0.587,0.006,0.466,0.001,0.12,NaN,NaN,NaN,NaN,NaN,NaN,NaN,NaN,5.146e-5,15.748,194.778,84,0,6.41,37.004,861.252,353.724,0.01,0.014
0.03,0.01,1.075,66.172,1.08,66.537,0.001,0,0.001,0,0.113,6.955,32,-106,9.791,74.52,0,0,0,5.189e4,2.676e4,46.99,0.254,NaN,253.425,NaN,0.018,1.239e6,3958.155,0.01,0.586,0.024,0.465,0.001,0.12,NaN,NaN,NaN,NaN,NaN,NaN,NaN,NaN,1.339e-4,15.748,194.778,84,0,6.322,37.004,861.252,353.723,0.01,0.015
0.04,0.025,1.889,81.486,1.9,81.935,0.003,0,0.003,0,0.199,8.565,32,-106,9.791,67.635,0,0,0,5.187e4,2.674e4,46.977,0.254,NaN,253.395,NaN,0.019,1.273e6,4754.946,0.028,0.584,0.067,0.463,0.001,0.12,NaN,NaN,NaN,NaN,NaN,NaN,NaN,NaN,2.354e-4,15.748,194.778,84,0,6.235,37.004,861.251,353.723,0.01,0.017
0.05,0.048,2.706,81.728,2.721,82.178,0.005,0,0.005,0,0.284,8.59,32,-106,9.791,61.18,0,0,0,5.184e4,2.671e4,46.964,0.254,NaN,253.364,NaN,0.02,1.325e6,4765.27,0.06,0.58,0.131,0.459,0.001,0.12,NaN,NaN,NaN,NaN,NaN,NaN,NaN,NaN,3.373e-4,15.748,194.778,84,0,6.147,37.004,861.251,353.723,0.01,0.018
0.06,0.079,3.526,81.969,3.545,82.42,0.008,0,0.008,0,0.371,8.615,32,-106,9.791,55.36,0,0,0,5.182e4,2.669e4,46.951,0.254,NaN,253.334,NaN,0.021,1.397e6,4775.593,0.105,0.576,0.206,0.454,0.001,0.12,NaN,NaN,NaN,NaN,NaN,NaN,NaN,NaN,4.394e-4,15.748,194.778,84,0,6.085,37.004,861.25,353.723,0.01,0.019
0.07,0.118,4.348,82.21,4.372,82.663,0.012,0,0.012,0,0.457,8.641,32,-106,9.791,50.143,0,0,0,5.179e4,2.666e4,46.938,0.254,NaN,253.303,NaN,0.022,1.482e6,4785.897,0.164,0.571,0.285,0.449,0.001,0.12,NaN,NaN,NaN,NaN,NaN,NaN,NaN,NaN,5.418e-4,15.748,194.778,84,0,6.024,37.004,861.25,353.723,0.01,0.021
0.08,0.166,5.172,82.451,5.2,82.905,0.017,0,0.017,0,0.544,8.666,32,-106,9.791,45.515,0,0,0,5.177e4,2.664e4,46.924,0.254,NaN,253.273,NaN,0.023,1.578e6,4796.181,0.235,0.565,0.361,0.444,0.001,0.12,NaN,NaN,NaN,NaN,NaN,NaN,NaN,NaN,6.446e-4,15.748,194.778,84,0,5.962,37.004,861.249,353.723,0.01,0.022
0.09,0.222,5.999,82.692,6.032,83.148,0.023,0,0.023,0,0.63,8.691,32,-106,9.791,41.431,0,0,0,5.174e4,2.661e4,46.911,0.254,NaN,253.242,NaN,0.025,1.683e6,4806.465,0.318,0.56,0.43,0.439,0.001,0.12,NaN,NaN,NaN,NaN,NaN,NaN,NaN,NaN,7.476e-4,15.748,194.778,84,0,5.9,37.004,861.248,353.723,0.01,0.023
0.1,0.286,6.828,82.933,6.865,83.39,0.03,0,0.03,0,0.718,8.717,32,-106,9.791,37.837,0,0,0,5.172e4,2.659e4,46.898,0.254,NaN,253.211,NaN,0.027,1.797e6,4816.728,0.412,0.555,0.488,0.433,0.001,0.12,NaN,NaN,NaN,NaN,NaN,NaN,NaN,NaN,8.509e-4,15.748,194.778,84,0,5.838,37.004,861.247,353.723,0.01,0.024
0.11,0.358,7.659,83.174,7.701,83.632,0.038,0,0.038,0,0.805,8.742,32,-106,9.791,34.938,0,0,0,5.169e4,2.656e4,46.885,0.254,NaN,253.18,NaN,0.029,1.925e6,4826.971,0.515,0.549,0.532,0.428,0.001,0.12,NaN,NaN,NaN,NaN,NaN,NaN,NaN,NaN,9.546e-4,15.748,194.778,84,0,5.838,37.004,861.245,353.723,0.01,0.025
0.12,0.439,8.493,83.414,8.54,83.874,0.046,0,0.046,0,0.893,8.767,32,-106,9.791,32.398,0,0,0,5.167e4,2.654e4,46.871,0.254,NaN,253.149,NaN,0.031,2.057e6,4837.214,0.627,0.544,0.567,0.422,0.001,0.12,NaN,NaN,NaN,NaN,NaN,NaN,NaN,NaN,0.001,15.748,194.778,84,0,5.839,37.003,861.244,353.723,0.01,0.026
0.13,0.528,9.33,83.655,9.381,84.116,0.056,0,0.056,0,0.981,8.792,32,-106,9.791,30.164,0,0,0,5.164e4,2.651e4,46.858,0.254,NaN,253.118,NaN,0.033,2.194e6,4847.436,0.748,0.539,0.595,0.417,0.001,0.12,NaN,NaN,NaN,NaN,NaN,NaN,NaN,NaN,0.001,15.748,194.778,84,0,5.839,37.003,861.242,353.723,0.01,0.027
0.14,0.626,10.168,83.895,10.224,84.357,0.066,0,0.066,0,1.069,8.818,32,-106,9.791,28.189,0,0,0,5.162e4,2.648e4,46.845,0.254,NaN,253.087,NaN,0.035,2.334e6,4857.636,0.876,0.534,0.615,0.413,0.001,0.12,NaN,NaN,NaN,NaN,NaN,NaN,NaN,NaN,0.001,15.748,194.778,84,0,5.839,37.003,861.24,353.723,0.01,0.028
0.15,0.732,11.009,84.135,11.07,84.599,0.077,0,0.077,0,1.157,8.843,32,-106,9.791,26.434,0,0,0,5.159e4,2.646e4,46.831,0.254,NaN,253.055,NaN,0.037,2.476e6,4867.836,1.012,0.53,0.631,0.408,0.001,0.12,NaN,NaN,NaN,NaN,NaN,NaN,NaN,NaN,0.001,15.748,194.778,84,0,5.839,37.003,861.238,353.723,0.01,0.029
0.16,0.846,11.853,84.376,11.918,84.84,0.089,0,0.089,0,1.246,8.868,32,-106,9.791,25.016,0,0,0,5.156e4,2.643e4,46.818,0.253,NaN,253.024,NaN,0.039,2.626e6,4878.014,1.155,0.526,0.641,0.404,0.001,0.12,NaN,NaN,NaN,NaN,NaN,NaN,NaN,NaN,0.001,15.748,194.778,84,0,5.881,37.003,861.236,353.723,0.01,0.03
0.17,0.969,12.699,84.616,12.769,85.082,0.102,0,0.102,0,1.335,8.893,32,-106,9.791,23.747,0,0,0,5.154e4,2.641e4,46.804,0.253,NaN,252.992,NaN,0.041,2.777e6,4888.171,1.305,0.521,0.647,0.4,0.001,0.12,NaN,NaN,NaN,NaN,NaN,NaN,NaN,NaN,0.002,15.748,194.778,84,0,5.922,37.002,861.234,353.722,0.01,0.031
0.18,1.1,13.547,84.856,13.622,85.323,0.116,0,0.116,0,1.424,8.919,32,-106,9.791,22.606,0,0,0,5.151e4,2.638e4,46.791,0.253,NaN,252.961,NaN,0.044,2.929e6,4898.327,1.462,0.518,0.652,0.396,0.001,0.12,NaN,NaN,NaN,NaN,NaN,NaN,NaN,NaN,0.002,15.748,194.778,84,0,5.964,37.002,861.231,353.722,0.01,0.032
0.19,1.24,14.398,85.096,14.477,85.565,0.13,0,0.13,0,1.513,8.944,32,-106,9.791,21.576,0,0,0,5.149e4,2.636e4,46.777,0.253,NaN,252.929,NaN,0.046,3.084e6,4908.46,1.625,0.514,0.654,0.392,0.001,0.12,NaN,NaN,NaN,NaN,NaN,NaN,NaN,NaN,0.002,15.748,194.778,84,0,6.006,37.002,861.229,353.722,0.01,0.032
0.2,1.388,15.251,85.336,15.335,85.806,0.146,0,0.146,0,1.603,8.969,32,-106,9.791,20.641,0,0,0,5.146e4,2.633e4,46.764,0.253,NaN,252.897,NaN,0.048,3.239e6,4918.571,1.796,0.511,0.655,0.389,0.001,0.12,NaN,NaN,NaN,NaN,NaN,NaN,NaN,NaN,0.002,15.748,194.778,84,0,6.048,37.002,861.226,353.722,0.01,0.033
0.21,1.545,16.107,85.575,16.195,86.047,0.162,0,0.162,0,1.693,8.994,32,-106,9.791,20.099,0,0,0,5.144e4,2.63e4,46.75,0.253,NaN,252.865,NaN,0.051,3.405e6,4928.682,1.978,0.507,0.653,0.386,0.001,0.12,NaN,NaN,NaN,NaN,NaN,NaN,NaN,NaN,0.002,15.748,194.778,84,0,6.197,37.001,861.223,353.722,0.01,0.034
0.22,1.71,16.965,85.815,17.058,86.288,0.18,0,0.18,0,1.783,9.02,32,-106,9.791,19.604,0,0,0,5.141e4,2.628e4,46.736,0.253,NaN,252.833,NaN,0.053,3.571e6,4938.769,2.169,0.504,0.651,0.382,0.001,0.12,NaN,NaN,NaN,NaN,NaN,NaN,NaN,NaN,0.002,15.748,194.778,84,0,6.347,37.001,861.22,353.722,0.01,0.035
0.23,1.884,17.825,86.054,17.923,86.528,0.198,0,0.198,0,1.873,9.045,32,-106,9.791,19.152,0,0,0,5.138e4,2.625e4,46.723,0.253,NaN,252.801,NaN,0.056,3.738e6,4948.833,2.368,0.501,0.648,0.379,0.002,0.12,NaN,NaN,NaN,NaN,NaN,NaN,NaN,NaN,0.002,15.748,194.778,84,0,6.496,37.001,861.217,353.721,0.01,0.036
0.24,2.067,18.688,86.294,18.79,86.769,0.217,0,0.217,0,1.964,9.07,32,-106,9.791,18.736,0,0,0,5.136e4,2.623e4,46.709,0.253,NaN,252.769,NaN,0.058,3.906e6,4958.897,2.575,0.498,0.646,0.376,0.002,0.12,NaN,NaN,NaN,NaN,NaN,NaN,NaN,NaN,0.002,15.748,194.778,84,0,6.645,37,861.213,353.721,0.01,0.037
0.25,2.258,19.553,86.533,19.66,87.009,0.237,0,0.237,0,2.055,9.095,32,-106,9.791,18.352,0,0,0,5.133e4,2.62e4,46.695,0.253,NaN,252.737,NaN,0.061,4.074e6,4968.937,2.79,0.496,0.643,0.374,0.002,0.12,NaN,NaN,NaN,NaN,NaN,NaN,NaN,NaN,0.002,15.748,194.778,84,0,6.795,37,861.21,353.721,0.01,0.038
0.26,2.458,20.42,86.772,20.533,87.25,0.258,0,0.258,0,2.146,9.12,32,-106,9.791,17.438,0,0,0,5.131e4,2.617e4,46.681,0.253,NaN,252.704,NaN,0.063,4.225e6,4978.953,2.992,0.493,0.641,0.371,0.002,0.121,NaN,NaN,NaN,NaN,NaN,NaN,NaN,NaN,0.003,15.748,194.778,84,0,6.706,37,861.206,353.721,0.01,0.039
0.27,2.666,21.29,87.012,21.407,87.491,0.28,0,0.28,0,2.238,9.145,32,-106,9.791,16.585,0,0,0,5.128e4,2.615e4,46.667,0.253,NaN,252.672,NaN,0.065,4.377e6,4988.968,3.196,0.491,0.638,0.369,0.002,0.121,NaN,NaN,NaN,NaN,NaN,NaN,NaN,NaN,0.003,15.748,194.778,84,0,6.618,36.999,861.202,353.72,0.01,0.041
0.28,2.883,22.162,87.251,22.284,87.732,0.303,0,0.303,0,2.329,9.17,32,-106,9.791,15.788,0,0,0,5.125e4,2.612e4,46.653,0.253,NaN,252.639,NaN,0.067,4.531e6,4998.959,3.399,0.489,0.633,0.367,0.002,0.121,NaN,NaN,NaN,NaN,NaN,NaN,NaN,NaN,0.003,15.748,194.778,84,0,6.529,36.999,861.198,353.72,0.01,0.043
0.29,3.109,23.037,87.491,23.164,87.973,0.327,0,0.327,0,2.421,9.196,32,-106,9.791,15.042,0,0,0,5.123e4,2.609e4,46.639,0.252,NaN,252.606,NaN,0.07,4.686e6,5008.925,3.602,0.487,0.628,0.365,0.002,0.121,NaN,NaN,NaN,NaN,NaN,NaN,NaN,NaN,0.003,15.748,194.778,84,0,6.441,36.998,861.194,353.72,0.01,0.044
0.3,3.344,23.914,87.73,24.046,88.213,0.351,0,0.351,0,2.513,9.221,32,-106,9.791,14.342,0,0,0,5.12e4,2.607e4,46.625,0.252,NaN,252.574,NaN,0.072,4.842e6,5018.891,3.804,0.485,0.621,0.363,0.002,0.121,NaN,NaN,NaN,NaN,NaN,NaN,NaN,NaN,0.003,15.748,194.778,84,0,6.353,36.998,861.19,353.72,0.01,0.045
0.31,3.588,24.794,87.969,24.93,88.454,0.377,0,0.377,0,2.606,9.246,32,-106,9.791,13.914,0,0,0,5.117e4,2.604e4,46.611,0.252,NaN,252.541,NaN,0.075,5.006e6,5028.831,4.03,0.483,0.615,0.36,0.002,0.121,NaN,NaN,NaN,NaN,NaN,NaN,NaN,NaN,0.003,15.748,194.778,84,0,6.376,36.997,861.185,353.719,0.01,0.046
0.32,3.84,25.675,88.208,25.817,88.694,0.404,0,0.404,0,2.699,9.271,32,-106,9.791,13.513,0,0,0,5.115e4,2.602e4,46.597,0.252,NaN,252.508,NaN,0.077,5.171e6,5038.746,4.26,0.481,0.609,0.358,0.002,0.121,NaN,NaN,NaN,NaN,NaN,NaN,NaN,NaN,0.003,15.748,194.778,84,0,6.4,36.997,861.18,353.719,0.01,0.047
0.33,4.101,26.56,88.447,26.706,88.935,0.431,0,0.431,0,2.792,9.296,32,-106,9.791,13.135,0,0,0,5.112e4,2.599e4,46.583,0.252,NaN,252.475,NaN,0.079,5.337e6,5048.66,4.496,0.479,0.604,0.357,0.002,0.121,NaN,NaN,NaN,NaN,NaN,NaN,NaN,NaN,0.003,15.748,194.778,84,0,6.424,36.996,861.176,353.719,0.01,0.048
0.34,4.371,27.446,88.686,27.597,89.175,0.459,0,0.459,0,2.885,9.321,32,-106,9.791,12.778,0,0,0,5.109e4,2.596e4,46.569,0.252,NaN,252.441,NaN,0.082,5.503e6,5058.549,4.737,0.477,0.598,0.355,0.002,0.121,NaN,NaN,NaN,NaN,NaN,NaN,NaN,NaN,0.003,15.748,194.778,84,0,6.447,36.996,861.171,353.718,0.01,0.049
0.35,4.65,28.335,88.925,28.491,89.415,0.489,0,0.489,0,2.978,9.346,32,-106,9.791,12.442,0,0,0,5.107e4,2.594e4,46.555,0.252,NaN,252.408,NaN,0.084,5.67e6,5068.411,4.983,0.476,0.593,0.353,0.002,0.121,NaN,NaN,NaN,NaN,NaN,NaN,NaN,NaN,0.004,15.748,194.778,84,0,6.471,36.995,861.165,353.718,0.01,0.05
0.36,4.938,29.227,89.163,29.388,89.655,0.519,0,0.519,0,3.072,9.371,32,-106,9.791,12.19,0,0,0,5.104e4,2.591e4,46.541,0.252,NaN,252.375,NaN,0.087,5.84e6,5078.273,5.245,0.474,0.588,0.351,0.002,0.121,NaN,NaN,NaN,NaN,NaN,NaN,NaN,NaN,0.004,15.748,194.778,84,0,6.532,36.995,861.16,353.718,0.01,0.051
0.37,5.235,30.12,89.402,30.286,89.894,0.55,0,0.55,0,3.166,9.397,32,-106,9.791,11.952,0,0,0,5.101e4,2.588e4,46.526,0.252,NaN,252.341,NaN,0.09,6.011e6,5088.108,5.513,0.472,0.584,0.349,0.002,0.121,NaN,NaN,NaN,NaN,NaN,NaN,NaN,NaN,0.004,15.748,194.778,84,0,6.593,36.994,861.154,353.717,0.01,0.051
0.385,5.697,31.465,89.694,31.639,90.205,0.599,2.792e-8,0.599,2.672e-6,3.31,9.588,32,-106,9.791,11.621,0,6.04e-4,3.804e-8,5.097e4,2.584e4,46.505,0.252,280.016,252.291,1.761,0.093,6.267e6,5100.367,5.929,0.47,0.577,0.347,0.002,0.121,4.283,7.541,1.12e-4,0,0,0,0,1.776e-4,0.004,15.748,194.778,83.998,-5.32E-07,6.685,36.993,861.146,353.717,0.015,0.052
0.408,6.427,33.492,90.161,33.677,90.673,0.676,1.782e-7,0.676,1.511e-5,3.526,9.621,32,-106,9.791,10.888,0,0.002,-8.00E-09,5.091e4,2.578e4,46.472,0.252,281.403,252.215,1.853,0.099,6.645e6,5118.72,6.526,0.467,0.565,0.343,0.002,0.121,3.942,7.305,3.358e-4,0,0,0,0,0.001,0.004,15.748,194.778,83.99,-8.45E-07,6.649,36.992,861.132,353.716,0.023,0.053
0.441,7.609,36.555,90.851,36.758,91.378,0.8,6.635e-7,0.8,4.751e-5,3.854,9.795,32,-106,9.791,9.157,0,0.003,6.904e-8,5.082e4,2.569e4,46.423,0.251,284.921,252.1,2.084,0.107,7.191e6,5146.113,7.297,0.462,0.54,0.339,0.002,0.121,3.172,6.607,-2.68E-04,0,0,0,0,0.004,0.005,15.748,194.778,83.961,-1.87E-06,6.075,36.99,861.11,353.715,0.034,0.054
0.491,9.552,41.142,91.885,41.372,92.417,1.005,2.008e-6,1.005,1.145e-4,4.349,9.905,32,-106,9.791,8.591,0,0.006,3.01e-8,5.069e4,2.555e4,46.35,0.251,286.165,251.927,2.174,0.12,8.075e6,5186.619,8.966,0.456,0.526,0.332,0.002,0.122,2.932,6.365,-2.43E-04,0,0,0,0,0.01,0.005,15.748,194.778,83.881,-6.19E-06,6.452,36.986,861.074,353.712,0.05,0.054
0.541,11.725,45.789,93.058,46.046,93.61,1.235,4.175e-6,1.235,1.937e-4,4.853,10.155,32,-106,9.791,7.912,0,0.009,2.346e-8,5.055e4,2.542e4,46.276,0.251,287.714,251.752,2.284,0.134,8.965e6,5234.54,10.755,0.451,0.512,0.327,0.002,0.122,2.652,6.036,-3.69E-04,0,0,0,0,0.019,0.006,15.748,194.778,83.748,-9.17E-06,6.704,36.982,861.034,353.71,0.05,0.055
0.591,14.132,50.495,94.213,50.78,94.801,1.491,7.254e-6,1.491,2.788e-4,5.372,10.549,32,-106,9.79,7.18,0,0.013,3.665e-7,5.041e4,2.528e4,46.201,0.25,289.453,251.574,2.405,0.147,9.863e6,5281.948,12.672,0.447,0.498,0.321,0.003,0.123,2.359,5.643,2.117e-4,0,0,0,0,0.032,0.006,15.748,194.778,83.553,-1.77E-05,6.869,36.977,860.989,353.707,0.05,0.056
0.641,16.776,55.257,95.343,55.572,95.99,1.773,1.133e-5,1.773,3.661e-4,5.916,11.13,32,-106,9.79,6.341,0,0.017,2.467e-7,5.027e4,2.514e4,46.124,0.25,291.546,251.394,2.55,0.16,1.077e7,5328.827,14.685,0.443,0.485,0.317,0.003,0.123,2.035,5.143,2.29e-4,0,0,0,0,0.046,0.007,15.748,194.778,83.289,-3.09E-05,6.894,36.972,860.94,353.704,0.05,0.057
0.691,19.659,60.075,96.468,60.424,97.167,2.083,1.648e-5,2.083,4.533e-4,6.488,11.635,32,-106,9.79,6.469,0,0.021,5.412e-7,5.013e4,2.5e4,46.047,0.249,291.249,251.211,2.542,0.175,1.173e7,5375.148,17.334,0.439,0.482,0.312,0.003,0.124,2.085,5.237,2.651e-5,0,0,0,0,0.063,0.007,15.748,194.778,82.947,-3.63E-05,7.959,36.966,860.886,353.701,0.05,0.057
0.741,22.785,64.948,97.542,65.334,98.347,2.422,2.281e-5,2.422,5.394e-4,7.093,12.558,32,-106,9.79,5.76,0,0.027,8.606e-7,4.998e4,2.485e4,45.969,0.249,293.098,251.026,2.672,0.189,1.266e7,5420.898,19.756,0.436,0.471,0.308,0.003,0.125,1.819,4.775,2.07e-4,0,0,0,0,0.085,0.008,15.748,194.778,82.515,-3.82E-05,8.195,36.96,860.828,353.697,0.05,0.058
0.791,26.155,69.873,98.555,70.302,99.532,2.793,3.04e-5,2.793,6.235e-4,7.757,13.909,32,-106,9.79,4.499,0,0.032,1.408e-6,4.984e4,2.471e4,45.889,0.248,296.572,250.838,2.904,0.202,1.358e7,5466.06,22.009,0.434,0.456,0.305,0.003,0.125,1.369,3.869,-1.77E-04,0,0,0,0,0.107,0.009,15.748,194.778,81.985,-4.91E-05,7.752,36.954,860.765,353.693,0.05,0.059
0.841,29.773,74.847,99.518,75.327,100.711,3.199,3.935e-5,3.199,7.048e-4,8.493,15.457,32,-106,9.79,3.434,0,0.037,1.646e-6,4.97e4,2.456e4,45.809,0.248,299.741,250.647,3.117,0.216,1.453e7,5510.606,24.553,0.431,0.445,0.302,0.004,0.126,1.011,3.03,1.065e-5,0,0,0,0,0.123,0.009,15.748,194.778,81.363,-6.59E-05,7.511,36.947,860.697,353.689,0.05,0.06
0.891,33.641,79.867,100.413,80.409,101.888,3.644,4.978e-5,3.644,7.827e-4,9.314,17.274,32,-106,9.79,2.305,-5.19E-09,0.041,3.031e-6,4.955e4,2.442e4,45.728,0.248,303.351,250.454,3.359,0.231,1.548e7,5554.521,27.287,0.429,0.436,0.298,0.004,0.127,0.655,2.065,2.057e-4,0,0,0,0,0.134,0.01,15.748,194.778,80.66,-6.75E-05,7.143,36.94,860.625,353.684,0.05,0.061
0.941,37.761,84.931,101.26,85.545,103.056,4.132,6.18e-5,4.132,8.569e-4,10.228,19.158,32,-106,9.79,1.545,0,0.044,5.016e-6,4.94e4,2.427e4,45.645,0.247,305.953,250.258,3.537,0.245,1.646e7,5597.79,30.482,0.428,0.431,0.295,0.004,0.128,0.428,1.377,3.443e-4,0,0,0,0,0.137,0.011,15.748,194.778,79.893,-5.13E-05,7.283,36.932,860.549,353.679,0.05,0.062
0.991,42.135,90.034,101.987,90.733,104.229,4.669,7.558e-5,4.669,9.276e-4,11.247,21.499,32,-106,9.79,0.105,-6.42E-09,0.046,8.03e-5,4.925e4,2.412e4,45.562,0.247,311.241,250.059,3.885,0.259,1.741e7,5640.385,33.749,0.426,0.426,0.293,0.005,0.129,0.028,-0.024,-3.15E-04,0,0,0,0,0.132,0.011,15.748,194.778,79.082,5.395e-6,6.286,36.923,860.467,353.674,0.05,0.063
1.041,46.765,95.171,102.672,95.973,105.388,5.259,9.134e-5,5.259,9.952e-4,12.384,23.77,32,-106,9.79,0.878,0,-0.044,1.025e-5,4.911e4,2.397e4,45.478,0.246,308.394,249.858,3.717,0.274,1.839e7,5682.293,37.635,0.425,0.426,0.29,0.005,0.13,0.238,0.996,1.534e-4,0,0,0,0,-0.111,0.012,15.748,194.778,78.269,5.905e-5,5.855,36.914,860.381,353.669,0.05,0.063
1.091,51.653,100.342,103.334,101.263,106.536,5.909,1.093e-4,5.909,0.001,13.632,25.92,32,-106,9.79,1.507,8.533e-9,-0.041,5.9e-6,4.895e4,2.382e4,45.392,0.246,306.202,249.654,3.591,0.289,1.94e7,5723.499,41.945,0.424,0.426,0.287,0.006,0.131,0.418,1.587,3.45e-4,0,0,0,0,-0.085,0.013,15.748,194.778,77.5,1.638e-4,5.855,36.905,860.29,353.663,0.05,0.064
1.141,56.8,105.544,103.959,106.603,107.674,6.624,1.299e-4,6.624,0.001,14.986,28.042,32,-106,9.79,2.158,8.558e-9,-0.036,4.187e-6,4.88e4,2.367e4,45.306,0.245,304.036,249.447,3.466,0.304,2.04e7,5763.973,46.625,0.423,0.428,0.285,0.006,0.132,0.613,2.182,-4.06E-04,0,0,0,0,-0.058,0.013,15.748,194.778,76.81,3.192e-4,5.584,36.895,860.194,353.657,0.05,0.065
1.191,62.208,110.778,104.639,111.991,108.795,7.409,1.535e-4,7.409,0.001,16.439,29.783,32,-106,9.79,2.431,0,-0.028,3.894e-6,4.865e4,2.352e4,45.219,0.245,303.188,249.238,3.426,0.319,2.144e7,5803.705,51.555,0.422,0.429,0.282,0.006,0.133,0.697,2.421,-2.59E-04,0,0,0,0,-0.033,0.014,15.748,194.778,76.236,4.894e-4,5.757,36.885,860.093,353.651,0.05,0.065
1.241,67.879,116.048,105.381,117.431,109.897,8.269,1.806e-4,8.269,0.001,17.969,31.177,32,-106,9.79,2.556,-5.87E-09,-0.019,4.258e-6,4.85e4,2.336e4,45.13,0.245,302.837,249.026,3.417,0.335,2.248e7,5842.68,56.722,0.422,0.429,0.28,0.007,0.135,0.737,2.532,4.94e-4,0,0,0,0,-0.014,0.015,15.748,194.778,75.808,6.583e-4,5.925,36.874,859.988,353.644,0.05,0.066
1.291,73.814,121.355,106.17,122.922,110.982,9.207,2.118e-4,9.207,0.001,19.563,32.327,32,-106,9.79,2.746,-5.16E-09,-0.009,4.718e-6,4.834e4,2.321e4,45.041,0.244,302.283,248.811,3.395,0.35,2.351e7,5880.869,62.175,0.421,0.43,0.278,0.008,0.136,0.797,2.711,-4.58E-04,0,0,0,0,-0.003,0.015,15.748,194.778,75.548,8.236e-4,5.577,36.862,859.877,353.637,0.05,0.067
1.341,80.016,126.706,107.15,128.467,112.034,10.226,2.477e-4,10.226,0.001,21.198,32.718,32,-106,9.79,2.51,0,0.002,1.585e-6,4.819e4,2.305e4,44.95,0.244,303.099,248.593,3.461,0.366,2.457e7,5918.262,67.691,0.421,0.429,0.276,0.008,0.137,0.724,2.506,-2.04E-04,0,0,0,0,1.03e-4,0.016,15.748,194.778,75.48,0.001,5.754,36.85,859.762,353.63,0.05,0.067
1.391,86.486,132.109,108.254,134.068,113.061,11.327,2.888e-4,11.327,0.001,22.838,32.616,32,-106,9.79,2.225,0,0.013,1.393e-6,4.803e4,2.29e4,44.859,0.243,304.092,248.372,3.538,0.382,2.563e7,5954.846,73.419,0.421,0.427,0.274,0.009,0.139,0.637,2.247,4.115e-4,0,0,0,0,0.005,0.017,15.748,194.778,75.612,0.001,5.637,36.838,859.641,353.623,0.05,0.068
1.441,93.228,137.568,109.388,139.727,114.075,12.51,3.359e-4,12.51,0.002,24.469,32.362,32,-106,9.79,2.215,0,0.024,3.233e-6,4.787e4,2.274e4,44.766,0.243,304.187,248.149,3.558,0.397,2.666e7,5990.592,79.455,0.422,0.427,0.272,0.009,0.141,0.634,2.242,4.948e-4,0,0,0,0,0.015,0.017,15.748,194.778,75.941,0.002,4.379,36.825,859.516,353.615,0.05,0.069
1.489,99.903,142.828,110.912,145.17,114.988,13.711,3.869e-4,13.711,0.002,25.972,30.343,32,-106,9.79,1.027,-9.12E-09,0.033,2.407e-6,4.772e4,2.259e4,44.677,0.242,308.325,247.934,3.835,0.414,2.775e7,6024.672,85.257,0.422,0.423,0.27,0.01,0.142,0.283,1.059,-3.81E-04,0,0,0,0,0.027,0.018,15.748,194.778,76.436,0.002,5.8,36.796,859.244,353.598,0.048,0.069
1.539,107.184,148.428,112.38,150.943,115.912,15.047,4.476e-4,15.047,0.002,27.44,28.398,32,-106,9.79,0.268,0,0.036,4.373e-6,4.756e4,2.243e4,44.583,0.242,311.175,247.705,4.03,0.43,2.884e7,6057.928,91.995,0.423,0.423,0.268,0.011,0.144,0.072,0.261,-4.38E-04,0,0,0,0,0.03,0.019,15.748,194.778,77.065,0.002,5.944,36.725,858.568,353.554,0.05,0.07
1.589,114.747,154.1,113.792,156.771,116.845,16.454,5.164e-4,16.454,0.002,28.816,26.537,32,-106,9.79,0.261,-2.74E-08,-0.036,8.023e-6,4.74e4,2.227e4,44.487,0.241,311.272,247.474,4.051,0.447,2.992e7,6091.121,99.195,0.424,0.424,0.266,0.012,0.146,0.07,0.313,-9.93E-05,0,0,0,0,-0.028,0.02,15.748,194.778,77.721,0.003,5.474,36.651,857.866,353.509,0.05,0.071
1.639,122.596,159.842,115.227,162.65,117.753,17.927,5.94e-4,17.927,0.002,30.09,24.259,32,-106,9.79,1.03,-1.84E-08,-0.031,8.823e-7,4.724e4,2.211e4,44.391,0.241,308.536,247.239,3.892,0.464,3.104e7,6123.424,107.376,0.425,0.426,0.264,0.013,0.148,0.285,1.129,3.571e-4,0,0,0,0,-0.019,0.02,15.748,194.778,78.334,0.003,5.942,36.574,857.137,353.462,0.05,0.072
1.689,130.733,165.653,116.505,168.576,118.659,19.461,6.813e-4,19.461,0.002,31.257,22.506,32,-106,9.79,1.507,0,-0.021,-2.92E-06,4.708e4,2.195e4,44.293,0.24,306.949,247.002,3.807,0.48,3.215e7,6154.818,115.996,0.426,0.429,0.262,0.014,0.15,0.425,1.626,4.846e-5,0,0,0,0,-0.008,0.021,15.748,194.778,78.806,0.004,6.104,36.494,856.381,353.414,0.05,0.072
1.733,138.203,170.861,117.49,173.876,119.498,20.871,7.673e-4,20.871,0.002,32.239,21.816,32,-106,9.79,1.596,0,-0.009,-2.59E-06,4.693e4,2.18e4,44.206,0.24,306.718,246.789,3.806,0.495,3.313e7,6183.603,123.643,0.427,0.43,0.261,0.014,0.152,0.452,1.722,2.449e-5,0,0,0,0,-0.001,0.022,15.748,194.778,79.041,0.004,5.822,36.42,855.687,353.37,0.044,0.073
1.773,145.048,175.531,118.31,178.624,120.229,22.162,8.511e-4,22.162,0.002,33.098,21.401,32,-106,9.79,1.748,0,0.003,-4.61E-06,4.681e4,2.167e4,44.127,0.24,306.276,246.598,3.79,0.509,3.404e7,6208.502,131.113,0.428,0.432,0.259,0.015,0.154,0.499,1.89,-2.56E-04,0,0,0,0,1.184e-4,0.022,15.748,194.778,79.082,0.004,6.35,36.353,855.051,353.329,0.04,0.074
1.807,151.107,179.587,118.943,182.745,120.858,23.304,9.29e-4,23.304,0.002,33.827,21.432,32,-106,9.79,1.831,0,0.015,3.342e-7,4.669e4,2.156e4,44.059,0.239,306.07,246.431,3.787,0.521,3.484e7,6229.792,137.897,0.43,0.434,0.258,0.016,0.155,0.524,1.982,3.862e-4,0,0,0,0,0.003,0.023,15.748,194.778,78.974,0.004,7.17,36.293,854.489,353.293,0.034,0.074
1.838,156.724,183.282,119.334,186.502,121.417,24.362,0.001,24.362,0.002,34.505,22.397,32,-106,9.79,1.588,0,0.026,-4.25E-07,4.659e4,2.146e4,43.996,0.239,306.963,246.279,3.853,0.532,3.554e7,6248.171,143.603,0.431,0.434,0.257,0.017,0.157,0.452,1.731,1.301e-4,0,0,0,0,0.01,0.023,15.748,194.778,78.747,0.004,7.269,36.238,853.967,353.259,0.031,0.075
1.872,163.035,187.358,119.614,190.653,121.987,25.55,0.001,25.55,0.002,35.294,23.946,32,-106,9.79,1.245,1.79e-8,0.036,1.118e-6,4.648e4,2.135e4,43.927,0.239,308.229,246.11,3.945,0.544,3.633e7,6266.115,150.099,0.432,0.434,0.256,0.018,0.158,0.351,1.365,-1.84E-04,0,0,0,0,0.018,0.024,15.748,194.778,78.37,0.004,7.525,36.176,853.381,353.222,0.034,0.076
1.913,170.88,192.313,119.772,195.715,122.654,27.03,0.001,27.03,0.003,36.335,26.432,32,-106,9.79,0.731,2.205e-8,0.045,3.519e-6,4.634e4,2.121e4,43.843,0.238,310.161,245.903,4.08,0.559,3.729e7,6286.396,158.364,0.434,0.435,0.254,0.019,0.161,0.203,0.801,-3.86E-04,0,0,0,0,0.027,0.024,15.748,194.778,77.765,0.004,7.929,36.099,852.652,353.175,0.041,0.077
1.963,180.646,198.314,119.782,201.875,123.457,28.881,0.001,28.881,0.003,37.749,29.896,32,-106,9.79,0.081,0,0.049,7.382e-5,4.618e4,2.105e4,43.739,0.238,312.707,245.65,4.258,0.577,3.846e7,6310.216,169.23,0.436,0.436,0.253,0.02,0.163,0.022,0.062,-3.95E-04,0,0,0,0,0.031,0.025,15.748,194.778,76.907,0.003,8.623,36.003,851.745,353.117,0.05,0.077
2.013,190.712,204.315,119.736,208.067,124.29,30.807,0.002,30.807,0.003,39.333,33.335,32,-106,9.79,0.463,4.76e-8,-0.046,1.18e-5,4.601e4,2.088e4,43.635,0.237,311.446,245.395,4.194,0.595,3.966e7,6335.349,181.222,0.439,0.44,0.251,0.022,0.166,0.128,0.562,4.187e-4,0,0,0,0,-0.026,0.026,15.748,194.778,76.038,0.003,9.68,35.904,850.81,353.057,0.05,0.078
2.063,201.078,210.31,119.566,214.287,125.124,32.817,0.002,32.817,0.003,41.095,36.878,32,-106,9.79,1.072,-8.99E-09,-0.035,1.146e-5,4.584e4,2.071e4,43.53,0.237,309.426,245.136,4.082,0.613,4.082e7,6359.465,193.88,0.442,0.444,0.249,0.024,0.169,0.303,1.252,3.153e-4,0,0,0,0,-0.014,0.027,15.748,194.778,75.292,0.003,9.86,35.803,849.847,352.995,0.05,0.078
2.098,208.466,214.475,119.565,218.631,125.773,34.27,0.002,34.27,0.003,42.422,39.025,32,-106,9.79,1.438,5.58e-9,-0.022,8.93e-6,4.573e4,2.06e4,43.456,0.237,308.281,244.955,4.021,0.625,4.162e7,6379.139,203.033,0.444,0.447,0.248,0.025,0.171,0.412,1.663,3.662e-4,0,0,0,0,-0.005,0.027,15.748,194.778,74.933,0.003,9.557,35.73,849.161,352.951,0.035,0.079
2.123,213.951,217.516,119.638,221.81,126.226,35.36,0.002,35.36,0.003,43.431,40.246,32,-106,9.79,1.659,0,-0.01,9.496e-6,4.564e4,2.051e4,43.402,0.236,307.621,244.822,3.988,0.634,4.218e7,6392.641,209.767,0.446,0.449,0.248,0.026,0.172,0.48,1.915,-3.80E-04,0,0,0,0,-9.80E-04,0.028,15.748,194.778,74.789,0.003,8.991,35.676,848.652,352.919,0.025,0.08
2.145,218.657,220.093,119.81,224.508,126.569,36.303,0.002,36.303,0.003,44.304,40.806,32,-106,9.79,1.752,0,0.002,7.384e-6,4.557e4,2.044e4,43.356,0.236,307.391,244.708,3.98,0.641,4.266e7,6402.906,215.441,0.447,0.451,0.247,0.027,0.173,0.509,2.025,3.998e-4,0,0,0,0,4.253e-5,0.028,15.748,194.778,74.76,0.003,8.487,35.63,848.215,352.891,0.022,0.08
2.165,223.055,222.48,120.179,227.008,126.832,37.192,0.002,37.192,0.003,45.114,40.537,32,-106,9.79,1.642,0,0.013,7.983e-6,4.55e4,2.037e4,43.313,0.236,307.839,244.603,4.016,0.649,4.312e7,6411.765,220.627,0.449,0.452,0.246,0.028,0.175,0.476,1.908,1.333e-4,0,0,0,0,0.002,0.028,15.748,194.778,74.814,0.004,8.478,35.587,847.806,352.864,0.02,0.081
2.185,227.668,224.965,120.706,229.608,127.064,38.131,0.002,38.131,0.003,45.943,39.691,32,-106,9.79,1.414,0,0.024,1.221e-5,4.543e4,2.03e4,43.269,0.236,308.702,244.493,4.077,0.656,4.361e7,6420.244,226.001,0.45,0.453,0.246,0.029,0.176,0.407,1.654,3.467e-4,0,0,0,0,0.006,0.029,15.748,194.778,74.951,0.004,8.63,35.541,847.378,352.837,0.021,0.081
2.209,232.929,227.78,121.358,232.548,127.312,39.209,0.002,39.209,0.003,46.851,38.48,32,-106,9.79,1.15,0,0.034,9.394e-6,4.535e4,2.022e4,43.219,0.235,309.712,244.369,4.149,0.664,4.415e7,6429.255,232.092,0.452,0.454,0.245,0.03,0.177,0.329,1.352,-2.69E-04,0,0,0,0,0.011,0.029,15.748,194.778,75.192,0.004,8.505,35.49,846.889,352.806,0.023,0.082
2.236,239.29,231.158,122.152,236.068,127.604,40.522,0.002,40.522,0.003,47.897,36.902,32,-106,9.79,0.882,1.658e-8,0.044,1.318e-5,4.526e4,2.013e4,43.158,0.235,310.768,244.22,4.226,0.674,4.477e7,6439.456,239.386,0.454,0.455,0.244,0.031,0.179,0.25,1.039,4.168e-4,0,0,0,0,0.018,0.029,15.748,194.778,75.581,0.005,7.764,35.427,846.298,352.768,0.028,0.083
2.271,247.466,235.465,123.511,240.537,127.902,42.223,0.003,42.223,0.003,49.136,33.228,32,-106,9.79,0.137,2.174e-8,0.051,4.837e-5,4.514e4,2.001e4,43.082,0.235,313.636,244.03,4.42,0.687,4.561e7,6451.634,249.593,0.457,0.457,0.243,0.033,0.181,0.038,0.144,-1.46E-04,0,0,0,0,0.024,0.03,15.748,194.778,76.189,0.005,8.172,35.347,845.539,352.719,0.035,0.085
2.321,259.394,241.698,125.282,246.947,128.34,44.719,0.003,44.719,0.004,50.642,27.85,32,-106,9.79,0.877,0,-0.04,7.822e-6,4.497e4,1.984e4,42.971,0.234,311.183,243.757,4.282,0.706,4.682e7,6467.457,266.447,0.462,0.463,0.241,0.035,0.185,0.25,1.085,-5.89E-05,0,0,0,0,-0.014,0.031,15.748,194.778,77.049,0.006,9.049,35.23,844.431,352.648,0.05,0.086
2.35,266.471,245.358,126.163,250.687,128.74,46.202,0.003,46.202,0.004,51.415,25.632,32,-106,9.79,1.205,1.301e-8,-0.028,4.224e-6,4.487e4,1.974e4,42.907,0.234,310.172,243.597,4.228,0.717,4.75e7,6481.512,276.436,0.464,0.466,0.241,0.037,0.187,0.348,1.478,3.023e-4,0,0,0,0,-0.006,0.031,15.748,194.778,77.411,0.005,8.841,35.16,843.774,352.606,0.029,0.087
2.372,271.81,248.095,126.614,253.478,129.001,47.32,0.003,47.32,0.004,51.958,24.701,32,-105.999,9.79,1.32,1.359e-8,-0.016,1.931e-7,4.48e4,1.967e4,42.858,0.234,309.879,243.477,4.217,0.724,4.8e7,6490.156,283.926,0.467,0.469,0.24,0.038,0.188,0.384,1.619,-1.52E-04,0,0,0,0,-0.002,0.032,15.748,194.778,77.583,0.005,8.699,35.108,843.278,352.574,0.022,0.087
2.391,276.638,250.551,126.888,255.979,129.21,48.331,0.003,48.331,0.004,52.433,24.386,32,-105.999,9.79,1.338,7.695e-9,-0.005,3.979e-7,4.473e4,1.96e4,42.815,0.234,309.913,243.37,4.225,0.731,4.846e7,6496.932,290.609,0.469,0.471,0.239,0.04,0.19,0.39,1.646,2.159e-5,0,0,0,0,-1.73E-04,0.032,15.748,194.778,77.655,0.005,8.572,35.06,842.83,352.546,0.019,0.088
2.41,281.342,252.925,127.078,258.396,129.398,49.315,0.003,49.315,0.004,52.889,24.394,32,-105.999,9.79,1.323,5.921e-9,0.006,2.38e-6,4.467e4,1.954e4,42.773,0.233,310.062,243.266,4.242,0.738,4.89e7,6503.077,297.258,0.471,0.473,0.239,0.041,0.191,0.385,1.634,3.765e-4,0,0,0,0,3.235e-4,0.032,15.748,194.778,77.648,0.005,8.649,35.014,842.393,352.518,0.019,0.089
2.429,286.035,255.275,127.19,260.789,129.574,50.296,0.003,50.296,0.004,53.342,24.743,32,-105.999,9.79,1.268,0,0.018,1.644e-6,4.461e4,1.947e4,42.731,0.233,310.348,243.162,4.266,0.745,4.935e7,6508.894,303.998,0.473,0.475,0.238,0.042,0.192,0.369,1.573,3.707e-4,0,0,0,0,0.002,0.033,15.748,194.778,77.568,0.005,8.889,34.968,841.957,352.49,0.018,0.09
2.447,290.862,257.67,127.195,263.23,129.744,51.304,0.003,51.304,0.004,53.815,25.592,32,-105.999,9.79,1.14,0,0.028,-2.42E-07,4.454e4,1.941e4,42.689,0.233,310.891,243.056,4.307,0.753,4.981e7,6514.599,310.872,0.475,0.477,0.238,0.044,0.194,0.331,1.421,-4.68E-04,0,0,0,0,0.006,0.033,15.748,194.778,77.412,0.005,9.133,34.921,841.508,352.461,0.019,0.09
2.468,296.157,260.271,127.112,265.886,129.916,52.41,0.004,52.41,0.004,54.351,26.845,32,-105.999,9.79,0.972,1.091e-8,0.039,3.858e-8,4.447e4,1.934e4,42.643,0.233,311.59,242.941,4.359,0.76,5.031e7,6520.44,318.652,0.478,0.479,0.237,0.045,0.195,0.281,1.215,3.829e-4,0,0,0,0,0.011,0.033,15.748,194.778,77.164,0.005,9.615,34.869,841.017,352.429,0.02,0.091
2.491,302.28,263.244,126.871,268.928,130.105,53.689,0.004,53.689,0.004,55.002,28.829,32,-105.999,9.79,0.708,9.942e-9,0.048,5.731e-6,4.439e4,1.926e4,42.589,0.233,312.658,242.808,4.435,0.77,5.089e7,6526.743,327.781,0.481,0.481,0.236,0.047,0.197,0.203,0.885,-2.26E-04,0,0,0,0,0.017,0.034,15.748,194.778,76.794,0.005,10.203,34.809,840.448,352.393,0.023,0.092
2.523,310.605,267.219,126.203,273.016,130.369,55.43,0.004,55.43,0.004,55.965,32.694,32,-105.999,9.79,0.145,-4.43E-08,0.056,3.552e-5,4.428e4,1.915e4,42.517,0.232,314.877,242.63,4.588,0.781,5.164e7,6534.328,340.094,0.485,0.485,0.235,0.05,0.199,0.041,0.166,-4.87E-04,0,0,0,0,0.022,0.034,15.748,194.778,76.198,0.005,10.366,34.727,839.675,352.343,0.031,0.092
2.57,323.326,273.133,124.794,279.153,130.844,58.104,0.004,58.104,0.004,57.662,39.326,32,-105.999,9.79,0.831,-3.47E-08,-0.047,9.657e-6,4.412e4,1.899e4,42.409,0.232,312.65,242.359,4.463,0.799,5.273e7,6544.591,360.202,0.491,0.492,0.234,0.055,0.203,0.241,1.092,4.467e-4,0,0,0,0,-0.015,0.035,15.748,194.778,75.299,0.005,9.601,34.602,838.493,352.268,0.047,0.093
2.592,329.533,275.948,124.108,282.1,131.213,59.418,0.004,59.418,0.004,58.594,42.593,32,-105.999,9.79,1.295,2.683e-8,-0.032,-1.01E-06,4.404e4,1.891e4,42.357,0.232,311.161,242.229,4.377,0.806,5.323e7,6553.193,370.661,0.495,0.497,0.233,0.057,0.205,0.382,1.68,3.738e-4,0,0,0,0,-0.007,0.035,15.748,194.778,74.976,0.005,8.802,34.541,837.917,352.231,0.023,0.093
2.607,333.671,277.801,123.812,284.048,131.405,60.298,0.004,60.298,0.004,59.242,44.019,32,-105.999,9.79,1.483,1.012e-8,-0.02,8.549e-7,4.399e4,1.886e4,42.322,0.231,310.604,242.142,4.347,0.812,5.356e7,6557.574,377.705,0.497,0.5,0.233,0.058,0.206,0.441,1.92,4.484e-4,0,0,0,0,-0.003,0.035,15.748,194.778,74.834,0.005,8.384,34.5,837.532,352.206,0.015,0.094
2.62,337.276,279.403,123.689,285.734,131.528,61.069,0.005,61.069,0.004,59.817,44.729,32,-105.999,9.79,1.566,6.435e-9,-0.009,4.267e-6,4.395e4,1.881e4,42.292,0.231,310.397,242.067,4.339,0.816,5.386e7,6560.749,383.791,0.499,0.503,0.233,0.06,0.207,0.467,2.028,-4.04E-05,0,0,0,0,-4.79E-04,0.036,15.748,194.778,74.767,0.005,8.121,34.465,837.198,352.185,0.013,0.095
2.632,340.668,280.9,123.68,287.312,131.616,61.796,0.005,61.796,0.004,60.361,45.012,32,-105.999,9.789,1.592,7.858e-9,0.003,3.286e-6,4.39e4,1.877e4,42.264,0.231,310.38,241.996,4.342,0.821,5.413e7,6563.484,389.422,0.501,0.505,0.232,0.061,0.208,0.476,2.066,-3.65E-04,0,0,0,0,4.542e-5,0.036,15.748,194.778,74.754,0.005,7.874,34.431,836.883,352.164,0.012,0.095
2.644,343.977,282.354,123.778,288.845,131.678,62.508,0.005,62.508,0.004,60.89,44.923,32,-105.999,9.789,1.57,7.242e-9,0.014,4.963e-6,4.386e4,1.873e4,42.236,0.231,310.524,241.927,4.356,0.825,5.44e7,6566.076,394.817,0.503,0.507,0.232,0.063,0.209,0.469,2.043,-1.40E-04,0,0,0,0,0.001,0.036,15.748,194.778,74.789,0.005,7.635,34.399,836.575,352.145,0.012,0.096
2.656,347.306,283.811,123.998,290.38,131.707,63.228,0.005,63.228,0.004,61.416,44.399,32,-105.999,9.789,1.488,9.147e-9,0.025,5.658e-6,4.382e4,1.869e4,42.209,0.231,310.87,241.858,4.382,0.829,5.467e7,6568.515,400.176,0.505,0.509,0.231,0.064,0.209,0.444,1.942,4.637e-4,0,0,0,0,0.004,0.036,15.748,194.778,74.871,0.005,7.465,34.366,836.266,352.125,0.012,0.097
2.668,350.79,285.332,124.349,291.98,131.709,63.983,0.005,63.983,0.004,61.954,43.411,32,-105.999,9.789,1.343,7.232e-9,0.035,7.366e-6,4.378e4,1.865e4,42.18,0.231,311.434,241.787,4.423,0.834,5.496e7,6570.97,405.751,0.508,0.51,0.231,0.066,0.21,0.399,1.759,-4.17E-05,0,0,0,0,0.008,0.036,15.748,194.778,75.004,0.005,7.36,34.332,835.942,352.104,0.012,0.097
2.682,354.618,286.999,124.835,293.73,131.69,64.815,0.005,64.815,0.004,62.525,41.936,32,-105.999,9.789,1.137,5.093e-9,0.046,6.708e-6,4.373e4,1.86e4,42.148,0.231,312.22,241.708,4.478,0.839,5.527e7,6573.524,411.889,0.51,0.512,0.231,0.068,0.211,0.336,1.494,3.794e-4,0,0,0,0,0.013,0.037,15.748,194.778,75.2,0.006,7.245,34.294,835.587,352.081,0.013,0.098
2.697,359.098,288.946,125.497,295.769,131.652,65.793,0.005,65.793,0.004,63.161,39.785,32,-105.999,9.789,0.847,0,0.056,6.178e-6,4.368e4,1.855e4,42.112,0.231,313.324,241.616,4.553,0.845,5.563e7,6576.289,419.21,0.513,0.514,0.23,0.07,0.213,0.249,1.113,1.246e-4,0,0,0,0,0.019,0.037,15.748,194.778,75.485,0.006,7.111,34.25,835.171,352.055,0.016,0.098
2.718,365.078,291.542,126.426,298.473,131.603,67.103,0.005,67.103,0.005,63.948,36.547,32,-105.999,9.789,0.429,-1.59E-08,0.064,8.364e-6,4.361e4,1.848e4,42.063,0.23,314.934,241.494,4.663,0.852,5.611e7,6579.639,429.36,0.517,0.518,0.23,0.073,0.214,0.125,0.557,4.312e-4,0,0,0,0,0.024,0.037,15.748,194.778,75.933,0.006,6.807,34.192,834.615,352.019,0.021,0.099
2.749,374.149,295.473,127.778,302.537,131.557,69.096,0.006,69.096,0.005,64.995,31.305,32,-105.999,9.789,0.223,5.761e-8,-0.065,2.093e-6,4.35e4,1.837e4,41.99,0.23,315.868,241.31,4.734,0.864,5.682e7,6584.134,446.166,0.524,0.525,0.229,0.079,0.217,0.064,0.33,3.893e-4,0,0,0,0,-0.025,0.038,15.748,194.778,76.666,0.007,6.319,34.103,833.773,351.965,0.031,0.099
2.795,387.985,301.438,129.205,308.638,131.577,72.14,0.006,72.14,0.005,66.277,24.87,32,-105.999,9.789,0.927,-7.19E-08,-0.044,6.22e-6,4.334e4,1.821e4,41.879,0.23,313.642,241.033,4.611,0.88,5.787e7,6590.309,474.535,0.536,0.538,0.227,0.088,0.221,0.275,1.279,-3.66E-04,0,0,0,0,-0.011,0.039,15.748,194.778,77.614,0.008,5.312,33.967,832.488,351.883,0.046,0.1
2.811,392.722,303.467,129.655,310.699,131.65,73.18,0.006,73.18,0.005,66.647,22.831,32,-105.999,9.789,1.14,0,-0.032,8.03e-7,4.329e4,1.816e4,41.842,0.229,313.004,240.938,4.576,0.886,5.824e7,6594.81,485.236,0.541,0.543,0.227,0.092,0.222,0.341,1.568,1.106e-4,0,0,0,0,-0.006,0.039,15.748,194.778,77.829,0.009,5.154,33.92,832.048,351.855,0.016,0.1
2.824,396.747,305.183,129.835,312.439,131.656,74.064,0.006,74.064,0.005,66.942,21.825,32,-105.999,9.789,1.235,0,-0.02,2.391e-6,4.324e4,1.811e4,41.81,0.229,312.764,240.858,4.566,0.891,5.855e7,6596.771,494.483,0.545,0.547,0.227,0.095,0.223,0.371,1.698,-4.37E-04,0,0,0,0,-0.002,0.039,15.748,194.778,77.954,0.009,5.096,33.881,831.674,351.831,0.013,0.101
2.836,400.442,306.752,129.903,314.027,131.645,74.874,0.006,74.874,0.005,67.202,21.346,32,-105.999,9.789,1.27,0,-0.009,-6.11E-07,4.32e4,1.807e4,41.781,0.229,312.724,240.785,4.568,0.896,5.883e7,6598.368,503.039,0.549,0.551,0.226,0.098,0.224,0.383,1.749,-3.71E-04,0,0,0,0,-4.27E-04,0.039,15.748,194.778,78.018,0.009,5.043,33.844,831.331,351.809,0.012,0.101
2.848,404.01,308.26,129.881,315.553,131.617,75.655,0.006,75.655,0.005,67.449,21.306,32,-105.999,9.789,1.256,0,0.002,1.623e-6,4.316e4,1.803e4,41.753,0.229,312.848,240.715,4.58,0.9,5.91e7,6599.82,511.357,0.553,0.555,0.226,0.101,0.225,0.379,1.736,-3.05E-04,0,0,0,0,2.598e-5,0.039,15.748,194.778,78.032,0.009,4.992,33.809,830.999,351.787,0.012,0.102
2.859,407.59,309.764,129.834,317.075,131.66,76.438,0.007,76.438,0.005,67.698,21.851,32,-105.999,9.789,1.174,0,0.013,9.945e-7,4.312e4,1.799e4,41.725,0.229,313.203,240.644,4.607,0.904,5.936e7,6601.192,515.719,0.553,0.555,0.226,0.101,0.226,0.354,1.629,-9.31E-05,0,0,0,0,8.994e-4,0.04,15.748,194.778,77.999,0.009,4.811,33.774,830.667,351.766,0.012,0.102
2.871,411.385,311.35,129.689,318.683,131.694,77.267,0.007,77.267,0.005,67.971,22.891,32,-105.999,9.789,1.036,0,0.024,-5.39E-07,4.308e4,1.795e4,41.695,0.229,313.756,240.57,4.647,0.909,5.964e7,6602.491,520.174,0.553,0.554,0.225,0.1,0.227,0.311,1.442,-2.60E-05,0,0,0,0,0.003,0.04,15.748,194.778,77.918,0.009,4.582,33.737,830.315,351.743,0.012,0.103
2.885,415.652,313.121,129.432,320.482,131.731,78.198,0.007,78.198,0.005,68.295,24.507,32,-105.999,9.789,0.834,0,0.034,3.843e-6,4.303e4,1.79e4,41.662,0.229,314.545,240.487,4.703,0.914,5.995e7,6603.887,525.124,0.553,0.554,0.225,0.099,0.229,0.249,1.165,-3.37E-04,0,0,0,0,0.006,0.04,15.748,194.778,77.776,0.008,4.325,33.695,829.918,351.718,0.014,0.103
2.902,420.909,315.283,128.997,322.687,131.784,79.344,0.007,79.344,0.005,68.725,26.959,32,-105.999,9.789,0.539,0,0.043,2.199e-6,4.297e4,1.784e4,41.621,0.229,315.691,240.384,4.782,0.92,6.034e7,6605.37,531.325,0.553,0.553,0.225,0.098,0.23,0.16,0.755,1.318e-4,0,0,0,0,0.009,0.04,15.748,194.778,77.542,0.008,4.037,33.643,829.43,351.687,0.017,0.104
2.927,428.861,318.511,128.236,325.995,131.895,81.078,0.007,81.078,0.005,69.451,30.848,32,-105.999,9.789,0.097,-3.41E-08,0.049,2.637e-5,4.288e4,1.775e4,41.56,0.228,317.449,240.23,4.903,0.93,6.092e7,6607.28,541.473,0.553,0.553,0.224,0.096,0.232,0.029,0.128,4.888e-4,0,0,0,0,0.012,0.041,15.748,194.778,77.117,0.008,3.931,33.565,828.691,351.639,0.025,0.104
2.964,440.941,323.315,127.053,330.96,132.128,83.715,0.008,83.715,0.005,70.726,36.266,32,-105.999,9.789,0.479,4.311e-8,-0.041,-9.34E-07,4.275e4,1.762e4,41.468,0.228,316.323,239.997,4.847,0.944,6.181e7,6609.738,558.201,0.553,0.554,0.224,0.094,0.236,0.143,0.699,2.323e-4,0,0,0,0,-0.008,0.041,15.748,194.778,76.478,0.007,4.015,33.447,827.569,351.567,0.038,0.105
2.989,448.97,326.447,126.446,334.22,132.299,85.475,0.008,85.475,0.005,71.661,38.914,32,-105.999,9.789,0.725,3.418e-8,-0.028,-3.67E-06,4.267e4,1.754e4,41.407,0.228,315.622,239.844,4.812,0.953,6.24e7,6611.77,569.822,0.553,0.554,0.223,0.092,0.238,0.218,1.055,4.547e-4,0,0,0,0,-0.004,0.042,15.748,194.778,76.166,0.007,4.325,33.368,826.824,351.52,0.025,0.105
3.006,454.475,328.57,126.207,336.436,132.387,86.685,0.008,86.685,0.005,72.325,39.976,32,-105.999,9.789,0.813,8.532e-9,-0.016,-1.82E-06,4.261e4,1.748e4,41.366,0.227,315.428,239.739,4.806,0.96,6.28e7,6612.877,577.634,0.554,0.555,0.223,0.091,0.24,0.246,1.183,-3.68E-05,0,0,0,0,-0.001,0.042,15.748,194.778,76.034,0.007,4.453,33.314,826.312,351.487,0.017,0.106
3.021,459.375,330.446,126.117,338.397,132.44,87.765,0.008,87.765,0.005,72.924,40.434,32,-105.999,9.789,0.845,6.106e-9,-0.004,-1.01E-06,4.256e4,1.743e4,41.329,0.227,315.414,239.646,4.811,0.966,6.315e7,6613.555,584.384,0.554,0.555,0.222,0.09,0.241,0.256,1.233,-2.92E-04,0,0,0,0,-9.04E-05,0.042,15.748,194.778,75.979,0.007,4.431,33.265,825.857,351.458,0.015,0.106
3.035,464.046,332.224,126.181,340.256,132.461,88.797,0.008,88.797,0.005,73.493,40.302,32,-105.999,9.789,0.818,0,0.007,3.859e-6,4.251e4,1.738e4,41.294,0.227,315.601,239.558,4.829,0.971,6.348e7,6614.119,590.665,0.554,0.555,0.222,0.089,0.243,0.248,1.198,1.622e-4,0,0,0,0,2.014e-4,0.042,15.748,194.778,75.985,0.007,4.41,33.22,825.424,351.43,0.014,0.107
3.049,468.83,334.038,126.39,342.151,132.45,89.856,0.008,89.856,0.005,74.068,39.605,32,-105.999,9.789,0.734,6.49e-9,0.017,5.03e-6,4.246e4,1.733e4,41.258,0.227,315.983,239.467,4.859,0.976,6.382e7,6614.529,596.962,0.554,0.555,0.222,0.088,0.244,0.223,1.081,-4.46E-04,0,0,0,0,0.001,0.043,15.748,194.778,76.048,0.007,4.389,33.173,824.979,351.401,0.014,0.107
3.065,474.104,336.03,126.795,344.229,132.405,91.027,0.009,91.027,0.005,74.68,38.134,32,-105.999,9.789,0.571,0,0.027,5.672e-7,4.24e4,1.727e4,41.219,0.227,316.654,239.368,4.908,0.983,6.419e7,6614.908,603.867,0.554,0.555,0.222,0.087,0.245,0.173,0.844,8.23e-5,0,0,0,0,0.003,0.043,15.748,194.778,76.176,0.007,4.465,33.121,824.489,351.37,0.016,0.108
3.085,480.825,338.563,127.456,346.861,132.335,92.523,0.009,92.523,0.005,75.416,35.602,32,-105.999,9.789,0.304,8.392e-9,0.036,5.087e-6,4.233e4,1.72e4,41.169,0.227,317.728,239.242,4.984,0.99,6.466e7,6615.174,612.748,0.554,0.555,0.221,0.086,0.247,0.091,0.449,-4.71E-04,0,0,0,0,0.006,0.043,15.748,194.778,76.407,0.008,4.566,33.055,823.865,351.33,0.02,0.108
3.115,491.002,342.389,128.511,350.812,132.2,94.792,0.009,94.792,0.006,76.412,31.01,32,-105.999,9.789,0.166,2.694e-8,-0.038,-1.05E-05,4.223e4,1.71e4,41.095,0.226,318.406,239.053,5.039,1.002,6.537e7,6615.332,629.363,0.557,0.557,0.221,0.087,0.25,0.05,0.257,-1.04E-04,0,0,0,0,-0.006,0.044,15.748,194.778,76.818,0.009,4.899,32.955,822.92,351.27,0.03,0.11
3.16,506.482,348.171,129.033,356.726,131.635,98.247,0.01,98.247,0.006,77.653,26.042,32,-105.999,9.789,0.622,1.539e-8,-0.014,-1.64E-05,4.207e4,1.694e4,40.982,0.226,317.056,238.767,4.971,1.019,6.643e7,6615.013,675.696,0.578,0.579,0.22,0.113,0.245,0.19,0.944,-3.62E-05,0,0,0,0,-8.45E-04,0.045,15.748,194.778,77.276,0.01,5.299,32.803,821.482,351.177,0.045,0.11
3.175,511.774,350.128,129.036,358.719,131.497,99.426,0.01,99.426,0.006,78.037,25.322,32,-105.999,9.789,0.665,0,-0.004,-6.18E-06,4.202e4,1.689e4,40.943,0.226,316.987,238.67,4.973,1.025,6.676e7,6614.324,688.589,0.583,0.584,0.22,0.119,0.244,0.204,1.012,-6.53E-05,0,0,0,0,-6.21E-05,0.045,15.748,194.778,77.327,0.01,4.978,32.751,820.991,351.146,0.015,0.111
3.19,517.109,352.087,128.786,360.715,131.354,100.615,0.01,100.615,0.006,78.425,25.846,32,-105.999,9.789,0.595,0,0.007,-5.64E-06,4.197e4,1.684e4,40.905,0.226,317.311,238.572,5,1.03,6.71e7,6613.831,700.99,0.588,0.589,0.22,0.126,0.243,0.182,0.91,-4.75E-04,0,0,0,0,1.864e-4,0.045,15.748,194.778,77.318,0.01,4.655,32.698,820.495,351.114,0.015,0.111
3.207,523.017,354.238,128.366,362.911,131.185,101.931,0.01,101.931,0.006,78.867,27.049,32,-105.999,9.789,0.465,5.97e-9,0.017,-1.18E-05,4.191e4,1.678e4,40.863,0.225,317.852,238.464,5.041,1.036,6.747e7,6613.151,714.793,0.593,0.593,0.219,0.132,0.241,0.142,0.714,1.736e-4,0,0,0,0,0.001,0.045,15.748,194.778,77.246,0.01,4.342,32.64,819.946,351.079,0.017,0.112
3.228,530.523,356.94,127.715,365.678,131.02,103.602,0.011,103.602,0.006,79.46,29.242,32,-105.999,9.789,0.248,-5.38E-09,0.025,-2.55E-05,4.184e4,1.671e4,40.809,0.225,318.725,238.328,5.105,1.044,6.794e7,6612.227,730.77,0.598,0.598,0.219,0.139,0.239,0.075,0.381,2.568e-4,0,0,0,0,0.003,0.046,15.748,194.778,77.081,0.01,4.024,32.567,819.249,351.034,0.021,0.113
3.26,541.889,360.966,126.652,369.822,130.854,106.133,0.011,106.133,0.006,80.449,32.896,32,-105.999,9.789,0.094,-1.91E-08,-0.027,-3.83E-05,4.173e4,1.66e4,40.728,0.225,319.422,238.122,5.163,1.056,6.866e7,6610.638,753.508,0.604,0.604,0.219,0.148,0.237,0.029,0.151,4.451e-4,0,0,0,0,-0.003,0.046,15.748,194.778,76.765,0.01,3.735,32.455,818.194,350.967,0.032,0.113
3.307,559.176,366.949,125.603,376.024,130.706,109.993,0.012,109.993,0.006,82.113,36.167,32,-105.999,9.789,0.367,-8.67E-08,-0.011,1.523e-5,4.156e4,1.643e4,40.606,0.224,318.665,237.812,5.134,1.074,6.974e7,6607.653,784.098,0.608,0.609,0.218,0.157,0.233,0.112,0.577,-3.93E-04,0,0,0,0,-4.89E-04,0.047,15.748,194.778,76.408,0.009,3.845,32.285,816.588,350.864,0.047,0.114
3.329,567.207,369.68,125.206,378.866,130.633,111.792,0.012,111.792,0.006,82.921,37.26,32,-105.999,9.789,0.458,-1.52E-08,4.792e-4,3.797e-6,4.149e4,1.635e4,40.55,0.224,318.43,237.669,5.128,1.082,7.023e7,6604.49,796.646,0.609,0.61,0.218,0.16,0.231,0.141,0.723,-1.02E-04,0,0,0,0,8.451e-7,0.047,15.748,194.778,76.365,0.009,3.612,32.206,815.842,350.816,0.022,0.114
3.348,574.233,372.052,125.248,381.334,130.572,113.37,0.012,113.37,0.006,83.625,36.905,32,-105.999,9.789,0.426,0,0.011,-1.68E-06,4.142e4,1.629e4,40.501,0.224,318.613,237.544,5.148,1.089,7.065e7,6602.366,805.639,0.609,0.609,0.218,0.162,0.23,0.131,0.673,-6.41E-05,0,0,0,0,4.763e-4,0.048,15.748,194.778,76.407,0.009,3.41,32.137,815.19,350.774,0.019,0.115
3.368,581.751,374.576,125.529,383.957,130.47,115.061,0.013,115.061,0.006,84.356,35.566,32,-105.999,9.789,0.313,-1.10E-08,0.021,1.554e-6,4.135e4,1.622e4,40.449,0.224,319.08,237.411,5.186,1.097,7.11e7,6600.148,815.159,0.608,0.608,0.217,0.163,0.228,0.096,0.495,1.935e-4,0,0,0,0,0.002,0.048,15.748,194.778,76.528,0.009,3.22,32.063,814.491,350.729,0.02,0.115
3.395,591.955,377.988,126.192,387.489,130.378,117.362,0.013,117.362,0.006,85.283,32.773,32,-105.999,9.789,0.083,-2.44E-08,0.028,-2.98E-05,4.126e4,1.612e4,40.379,0.224,319.977,237.231,5.254,1.107,7.17e7,6597.211,825.724,0.606,0.606,0.217,0.163,0.226,0.025,0.13,2.228e-5,0,0,0,0,0.003,0.048,15.748,194.778,76.779,0.009,2.97,31.963,813.544,350.669,0.027,0.116
3.436,607.434,383.148,127.459,392.788,130.344,120.856,0.014,120.856,0.006,86.49,27.268,32,-105.999,9.789,0.379,3.983e-8,-0.018,-2.90E-05,4.112e4,1.598e4,40.273,0.223,319.049,236.96,5.213,1.123,7.265e7,6592.551,840.744,0.6,0.601,0.216,0.162,0.223,0.116,0.608,-6.51E-05,0,0,0,0,-0.001,0.049,15.748,194.778,77.156,0.01,3.796,31.811,812.14,350.576,0.041,0.116
3.455,614.789,385.591,127.892,395.281,130.355,122.516,0.014,122.516,0.006,86.985,25.221,32,-105.999,9.789,0.541,-8.00E-09,-0.005,-4.75E-06,4.105e4,1.592e4,40.223,0.223,318.533,236.832,5.188,1.13,7.31e7,6588.053,846.468,0.597,0.597,0.216,0.16,0.221,0.167,0.868,5.041e-5,0,0,0,0,-1.01E-04,0.049,15.748,194.778,77.241,0.011,4.194,31.739,811.484,350.533,0.019,0.117
3.469,620.359,387.434,127.94,397.158,130.367,123.772,0.014,123.772,0.007,87.345,25.041,32,-105.999,9.789,0.552,-7.83E-09,0.006,-1.13E-05,4.1e4,1.587e4,40.185,0.223,318.525,236.736,5.194,1.136,7.343e7,6585.32,850.407,0.594,0.594,0.215,0.159,0.22,0.171,0.886,-1.57E-04,0,0,0,0,1.174e-4,0.05,15.748,194.778,77.239,0.011,4.339,31.684,810.987,350.499,0.014,0.117
3.483,625.808,389.228,127.835,398.986,130.381,125,0.014,125,0.007,87.7,25.638,32,-105.999,9.789,0.505,-1.32E-08,0.017,-1.64E-05,4.095e4,1.582e4,40.148,0.223,318.715,236.641,5.212,1.141,7.375e7,6582.935,853.803,0.591,0.591,0.215,0.157,0.219,0.156,0.811,-4.11E-04,0,0,0,0,9.246e-4,0.05,15.748,194.778,77.181,0.011,4.481,31.631,810.501,350.467,0.014,0.118
3.499,631.742,391.17,127.578,400.969,130.412,126.337,0.015,126.337,0.007,88.1,27.042,32,-105.999,9.789,0.398,-1.06E-08,0.027,-1.75E-05,4.09e4,1.577e4,40.108,0.222,319.11,236.539,5.243,1.147,7.41e7,6580.345,856.472,0.587,0.588,0.215,0.155,0.218,0.122,0.639,1.629e-4,0,0,0,0,0.002,0.05,15.748,194.778,77.06,0.011,4.634,31.572,809.971,350.432,0.015,0.118
3.518,639.244,393.603,126.913,403.462,130.478,128.026,0.015,128.026,0.007,88.647,30.291,32,-105.999,9.789,0.142,-2.07E-08,0.034,-3.12E-05,4.083e4,1.57e4,40.058,0.222,320.03,236.41,5.31,1.154,7.452e7,6577.219,859.522,0.583,0.583,0.214,0.152,0.217,0.043,0.226,6e-5,0,0,0,0,0.004,0.05,15.748,194.778,76.845,0.011,4.351,31.499,809.302,350.387,0.019,0.119
3.546,650.584,397.224,125.813,407.202,130.708,130.582,0.015,130.582,0.007,89.594,35.437,32,-105.999,9.789,0.254,-3.45E-08,-0.031,-2.35E-06,4.073e4,1.56e4,39.982,0.222,319.661,236.216,5.299,1.165,7.515e7,6572.606,863.936,0.576,0.576,0.214,0.148,0.215,0.078,0.415,-1.85E-04,0,0,0,0,-0.003,0.051,15.748,194.778,76.49,0.011,3.867,31.387,808.29,350.32,0.029,0.119
3.573,661.295,400.59,125.28,410.706,130.904,133,0.016,133,0.007,90.589,37.959,32,-105.999,9.789,0.421,2.557e-8,-0.016,-1.76E-05,4.064e4,1.551e4,39.911,0.222,319.092,236.033,5.274,1.175,7.576e7,6566.941,867.548,0.569,0.569,0.213,0.143,0.213,0.129,0.683,1.881e-4,0,0,0,0,-8.23E-04,0.051,15.748,194.778,76.256,0.01,4.199,31.282,807.334,350.256,0.027,0.119
3.59,667.957,402.666,125.215,412.87,130.956,134.508,0.016,134.508,0.007,91.224,38.35,32,-105.999,9.789,0.435,0,-0.005,-1.07E-05,4.058e4,1.545e4,39.867,0.222,319.044,235.92,5.278,1.182,7.615e7,6562.267,869.408,0.564,0.564,0.213,0.14,0.212,0.134,0.706,-2.22E-04,0,0,0,0,-7.24E-05,0.052,15.748,194.778,76.194,0.01,4.481,31.217,806.739,350.216,0.017,0.12
3.606,674.512,404.7,125.383,414.991,131.007,135.995,0.016,135.995,0.007,91.844,37.972,32,-105.999,9.788,0.398,0,0.006,1.359e-6,4.053e4,1.539e4,39.824,0.221,319.172,235.809,5.294,1.188,7.652e7,6558.612,870.675,0.559,0.56,0.212,0.137,0.21,0.122,0.645,-5.11E-05,0,0,0,0,1.001e-4,0.052,15.748,194.778,76.198,0.01,4.604,31.152,806.154,350.177,0.016,0.12
3.624,681.657,406.909,125.697,417.292,131.048,137.618,0.017,137.618,0.007,92.506,37.066,32,-105.999,9.788,0.328,0,0.016,-1.35E-06,4.047e4,1.533e4,39.777,0.221,319.402,235.688,5.316,1.195,7.69e7,6554.675,871.844,0.554,0.555,0.212,0.133,0.209,0.1,0.532,2.175e-4,0,0,0,0,7.874e-4,0.052,15.748,194.778,76.269,0.01,4.452,31.082,805.516,350.135,0.018,0.121
3.645,690.272,409.567,126.32,420.052,131.077,139.578,0.017,139.578,0.007,93.267,34.991,32,-105.999,9.788,0.177,-1.38E-08,0.025,4.621e-6,4.039e4,1.526e4,39.721,0.221,319.911,235.544,5.357,1.203,7.737e7,6550.052,873.062,0.549,0.549,0.211,0.129,0.208,0.054,0.286,4.979e-4,0,0,0,0,0.002,0.052,15.748,194.778,76.429,0.011,4.269,30.997,804.748,350.083,0.021,0.121
3.676,703.299,413.583,127.504,424.198,131.165,142.547,0.018,142.547,0.007,94.304,30.774,32,-105.998,9.788,0.126,1.483e-8,-0.025,-1.22E-05,4.028e4,1.515e4,39.636,0.221,320.047,235.325,5.38,1.215,7.808e7,6543.448,874.906,0.54,0.54,0.211,0.123,0.206,0.038,0.207,-1.55E-04,0,0,0,0,-0.002,0.053,15.748,194.778,76.735,0.011,4.265,30.869,803.585,350.006,0.032,0.122
3.724,723.019,419.645,128.329,430.406,131.392,147.043,0.019,147.043,0.007,95.642,28.207,32,-105.998,9.788,0.296,1.214e-8,-0.001,6.877e-6,4.012e4,1.499e4,39.509,0.22,319.35,234.997,5.356,1.233,7.913e7,6532.981,878.163,0.527,0.527,0.21,0.115,0.203,0.09,0.48,-4.10E-04,0,0,0,0,-4.99E-06,0.054,15.748,194.778,76.991,0.011,4.106,30.676,801.825,349.888,0.047,0.122
3.742,730.566,421.947,128.372,432.76,131.355,148.762,0.019,148.762,0.007,96.133,27.834,32,-105.998,9.788,0.314,-1.66E-08,0.008,1.202e-6,4.006e4,1.493e4,39.46,0.22,319.237,234.873,5.357,1.24,7.952e7,6523.848,879.286,0.522,0.523,0.209,0.112,0.202,0.095,0.508,2.128e-5,0,0,0,0,1.943e-4,0.054,15.748,194.778,76.97,0.011,3.957,30.602,801.152,349.843,0.018,0.123
3.762,739.224,424.569,128.09,435.445,131.401,150.735,0.019,150.735,0.007,96.717,29.312,32,-105.998,9.788,0.213,0,0.017,1.797e-5,3.999e4,1.486e4,39.405,0.22,319.524,234.73,5.384,1.247,7.998e7,6518.256,881.412,0.518,0.518,0.209,0.109,0.2,0.064,0.344,-1.11E-05,0,0,0,0,8.508e-4,0.054,15.748,194.778,76.871,0.011,3.966,30.517,800.379,349.792,0.02,0.123
3.792,752.036,428.405,127.465,439.391,131.518,153.654,0.02,153.654,0.007,97.644,32.396,32,-105.998,9.788,0.011,-6.43E-08,0.023,4.238e-4,3.989e4,1.476e4,39.324,0.22,320.125,234.52,5.436,1.259,8.065e7,6510.617,884.547,0.511,0.511,0.208,0.104,0.199,0.003,0.017,9.653e-5,0,0,0,0,0.001,0.055,15.748,194.778,76.637,0.011,4.163,30.391,799.236,349.716,0.03,0.124
3.837,771.469,434.119,126.735,445.309,131.627,158.088,0.021,158.088,0.008,99.2,35.55,32,-105.998,9.788,0.179,-9.08E-08,-0.012,4.527e-5,3.973e4,1.46e4,39.201,0.219,319.318,234.203,5.405,1.277,8.168e7,6498.736,893.102,0.502,0.502,0.207,0.1,0.196,0.053,0.287,3.603e-4,0,0,0,0,-4.01E-04,0.056,15.748,194.778,76.314,0.012,4.786,30.2,797.501,349.6,0.045,0.124
3.866,783.847,437.706,126.427,449.035,131.481,160.92,0.021,160.92,0.008,100.23,36.106,32,-105.998,9.788,0.203,-5.72E-09,-0.002,-3.43E-06,3.964e4,1.45e4,39.124,0.219,319.077,234.003,5.402,1.288,8.233e7,6486.565,901.054,0.499,0.499,0.206,0.098,0.194,0.06,0.322,4.864e-4,0,0,0,0,-1.35E-05,0.056,15.748,194.778,76.236,0.012,5.306,30.078,796.397,349.526,0.028,0.125
3.895,796.597,441.373,126.678,452.839,131.305,163.842,0.022,163.842,0.008,101.258,34.549,32,-105.998,9.788,0.089,-1.47E-08,0.006,2.073e-5,3.954e4,1.441e4,39.044,0.219,319.295,233.797,5.429,1.3,8.299e7,6476.624,910.049,0.496,0.496,0.206,0.098,0.192,0.026,0.141,1.596e-4,0,0,0,0,8.507e-5,0.057,15.748,194.778,76.265,0.012,5.908,29.953,795.259,349.45,0.029,0.125
3.938,815.923,446.886,126.943,458.537,131.051,168.28,0.023,168.28,0.008,102.708,32.555,32,-105.998,9.788,0.037,-1.29E-08,-0.006,3.575e-5,3.939e4,1.426e4,38.925,0.218,319.179,233.488,5.441,1.316,8.395e7,6463.538,926.226,0.493,0.493,0.205,0.098,0.19,0.011,0.059,-1.11E-05,0,0,0,0,-8.79E-05,0.057,15.748,194.778,76.386,0.012,5.915,29.763,793.534,349.335,0.044,0.126
3.988,838.426,453.228,126.918,465.069,130.71,173.455,0.024,173.455,0.008,104.276,31.255,32,-105.998,9.788,0.121,-3.27E-08,0.003,-3.87E-06,3.922e4,1.409e4,38.787,0.218,318.474,233.13,5.419,1.336,8.506e7,6445.829,945.255,0.489,0.49,0.204,0.099,0.187,0.035,0.188,2.563e-6,0,0,0,0,2.371e-5,0.058,15.748,194.778,76.436,0.012,6.362,29.542,791.526,349.201,0.05,0.126
4.025,855.441,457.956,126.552,469.935,130.349,177.371,0.025,177.371,0.008,105.426,31.232,32,-105.998,9.788,0.131,0,0.013,-2.57E-05,3.909e4,1.396e4,38.684,0.217,318.088,232.862,5.412,1.351,8.59e7,6428.485,959.854,0.487,0.487,0.203,0.099,0.185,0.037,0.201,-1.61E-04,0,0,0,0,3.987e-4,0.059,15.748,194.778,76.319,0.012,7.237,29.375,790.007,349.1,0.037,0.127
4.066,874.251,463.098,125.286,475.242,130.099,181.703,0.026,181.703,0.008,106.748,35.056,32,-105.998,9.788,0.105,0,-0.019,-6.26E-06,3.896e4,1.382e4,38.57,0.217,317.772,232.567,5.411,1.367,8.679e7,6412.237,975.169,0.485,0.485,0.202,0.1,0.183,0.029,0.159,2.707e-5,0,0,0,0,-8.64E-04,0.059,15.748,194.778,76.052,0.012,7.378,29.19,788.328,348.988,0.041,0.127
4.116,897.561,469.309,124.578,481.716,129.785,187.087,0.027,187.087,0.008,108.628,36.392,32,-105.998,9.788,0.2,-4.66E-08,0.011,-1.21E-05,3.879e4,1.366e4,38.431,0.216,316.903,232.204,5.378,1.385,8.781e7,6392.554,993.07,0.482,0.482,0.201,0.1,0.18,0.055,0.297,7.295e-7,0,0,0,0,2.812e-4,0.06,15.748,194.778,75.94,0.012,6.318,28.961,786.248,348.849,0.05,0.128
4.135,906.338,471.622,124.284,484.126,129.422,189.121,0.028,189.121,0.008,109.32,36.106,32,-105.998,9.788,0.184,8.134e-9,0.017,-9.81E-06,3.873e4,1.359e4,38.379,0.216,316.739,232.069,5.377,1.392,8.821e7,6377.138,1000.076,0.481,0.481,0.201,0.1,0.18,0.051,0.271,-2.58E-04,0,0,0,0,6.504e-4,0.06,15.748,194.778,76.027,0.012,6.433,28.875,785.465,348.797,0.019,0.128
4.163,919.585,475.107,124.97,487.737,129.119,192.194,0.028,192.194,0.008,110.276,32.468,32,-105.998,9.788,0.034,-3.10E-08,-0.02,-6.37E-05,3.863e4,1.35e4,38.301,0.216,316.935,231.865,5.402,1.403,8.88e7,6366.371,1010.438,0.479,0.479,0.2,0.101,0.178,0.009,0.051,1.985e-4,0,0,0,0,-9.11E-04,0.061,15.748,194.778,76.231,0.012,6.528,28.745,784.282,348.718,0.028,0.129
4.205,939.639,480.362,125.414,493.141,128.77,196.85,0.03,196.85,0.009,111.535,29.207,32,-105.998,9.788,0.22,-3.36E-08,-0.005,-1.19E-05,3.849e4,1.336e4,38.183,0.216,315.718,231.557,5.344,1.419,8.968e7,6349.785,1026.121,0.477,0.477,0.199,0.101,0.176,0.059,0.316,-1.34E-04,0,0,0,0,-6.12E-05,0.062,15.748,194.778,76.456,0.013,6.494,28.548,782.493,348.599,0.042,0.129
4.226,949.747,482.989,125.171,495.834,128.424,199.196,0.03,199.196,0.009,112.132,28.721,32,-105.998,9.788,0.24,0,0.004,-1.24E-05,3.842e4,1.329e4,38.124,0.215,315.365,231.403,5.332,1.427,9.011e7,6334.452,1033.785,0.475,0.475,0.199,0.101,0.175,0.064,0.341,1.86e-4,0,0,0,0,4.251e-5,0.062,15.748,194.778,76.461,0.013,6.324,28.449,781.591,348.539,0.021,0.13
4.249,960.712,485.813,124.562,498.736,128.196,201.742,0.031,201.742,0.009,112.797,30.307,32,-105.998,9.788,0.14,1.227e-8,0.013,-7.64E-06,3.835e4,1.321e4,38.06,0.215,315.409,231.237,5.345,1.435,9.058e7,6323.593,1041.884,0.474,0.474,0.198,0.102,0.174,0.037,0.197,-3.50E-04,0,0,0,0,3.791e-4,0.062,15.748,194.778,76.383,0.013,6.141,28.341,780.612,348.474,0.023,0.13
4.282,977.278,490.018,123.54,503.077,127.935,205.59,0.032,205.59,0.009,113.877,33.242,32,-105.998,9.788,0.034,3.143e-8,-0.016,-6.44E-05,3.823e4,1.31e4,37.965,0.215,315.301,230.986,5.354,1.448,9.128e7,6309.195,1054.443,0.472,0.472,0.197,0.102,0.173,0.009,0.047,-2.46E-04,0,0,0,0,-5.43E-04,0.063,15.748,194.778,76.181,0.013,6.274,28.178,779.134,348.375,0.034,0.13
4.332,1001.933,496.148,122.593,509.443,127.522,211.327,0.033,211.327,0.009,115.627,35.111,32,-105.998,9.788,0.142,-4.56E-08,-0.002,1.708e-5,3.807e4,1.294e4,37.823,0.214,314.133,230.616,5.303,1.467,9.232e7,6287.245,1072.993,0.469,0.469,0.196,0.103,0.17,0.036,0.193,1.969e-4,0,0,0,0,-5.80E-06,0.064,15.748,194.778,75.986,0.013,6.429,27.936,776.933,348.228,0.05,0.131
4.361,1015.915,499.571,121.997,513.004,127.054,214.589,0.034,214.589,0.009,116.629,35.488,32,-105.998,9.787,0.171,1.206e-8,0.007,1.207e-5,3.798e4,1.284e4,37.744,0.214,313.587,230.408,5.282,1.478,9.288e7,6266.245,1083.139,0.468,0.468,0.196,0.103,0.169,0.043,0.229,-2.46E-05,0,0,0,0,9.305e-5,0.064,15.748,194.778,76.012,0.013,6.213,27.799,775.685,348.145,0.028,0.131
4.392,1031.552,503.368,122.028,516.949,126.661,218.242,0.035,218.242,0.009,117.715,33.945,32,-105.998,9.787,0.096,-1.31E-08,0.016,2.911e-5,3.787e4,1.274e4,37.655,0.214,313.385,230.175,5.284,1.489,9.347e7,6249.88,1093.857,0.466,0.466,0.195,0.103,0.168,0.024,0.126,2.579e-4,0,0,0,0,5.102e-4,0.065,15.748,194.778,76.154,0.014,5.451,27.645,774.29,348.052,0.031,0.132
4.439,1055.23,509.072,122.313,522.846,126.148,223.784,0.036,223.784,0.009,119.219,30.871,32,-105.998,9.787,0.057,6.939e-8,-0.015,-3.27E-05,3.772e4,1.259e4,37.522,0.213,312.835,229.826,5.271,1.505,9.435e7,6227.819,1109.72,0.464,0.464,0.194,0.104,0.166,0.014,0.074,1.907e-4,0,0,0,0,-4.46E-04,0.065,15.748,194.778,76.463,0.015,4.008,27.413,772.177,347.911,0.047,0.132
4.489,1080.836,515.172,122.045,529.118,125.511,229.782,0.038,229.782,0.009,120.681,29.29,32,-105.998,9.787,0.124,6.806e-8,-0.004,-3.50E-05,3.756e4,1.243e4,37.379,0.213,311.868,229.451,5.234,1.524,9.53e7,6199.641,1127.089,0.462,0.462,0.193,0.104,0.164,0.03,0.157,2.761e-5,0,0,0,0,-2.91E-05,0.066,15.748,194.778,76.662,0.015,3.045,27.161,769.892,347.758,0.05,0.133
4.521,1097.402,519.067,121.615,533.118,124.917,233.662,0.039,233.662,0.009,121.592,28.532,32,-105.998,9.787,0.161,-1.48E-08,0.006,3.671e-5,3.745e4,1.232e4,37.288,0.212,311.237,229.21,5.209,1.536,9.594e7,6175.082,1138.785,0.46,0.46,0.193,0.104,0.163,0.039,0.201,2.286e-4,0,0,0,0,6.447e-5,0.067,15.748,194.778,76.643,0.015,3.236,26.998,768.413,347.66,0.032,0.133
4.553,1114.237,522.976,120.798,537.138,124.452,237.606,0.04,237.606,0.01,122.529,29.938,32,-105.997,9.787,0.083,-1.08E-08,0.015,9.338e-5,3.735e4,1.222e4,37.195,0.212,311.019,228.966,5.21,1.548,9.66e7,6155.358,1150.789,0.458,0.458,0.192,0.105,0.162,0.019,0.101,4.208e-4,0,0,0,0,4.217e-4,0.067,15.748,194.778,76.505,0.014,3.798,26.833,766.969,347.56,0.032,0.134
